"team_number_yearly","team_name_calc","team_nickname","team_city","team_stateprov","team_postalcode","profile_year","fk_program_seasons","team_rookieyear","team_web_url","team_country","countryCode","team_type","program_code_display","program_name","lat","lon"
1,"The Chrysler Foundation/BAE Systems/Hirotec & Oakland Schools Technical Campus Northeast","The Juggernauts","Pontiac","MI","48340",2018,247,1997,"http://www.juggernauts.org/","USA","US","FRC","FRC","FIRST Robotics Competition",42.672494,-83.288704
4,"Lockheed Martin/Cooler Master/Sawing Services/Gibbs CAM/SolidWorks/Boston Scientific/WAAG/Full Scale Effects/Raytheon&High Tech La","Team 4 ELEMENT","Van Nuys","CA","91406",2018,247,1997,"http://www.team4element.com","USA","US","FRC","FRC","FIRST Robotics Competition",34.201751,-118.492685
8,"Google/Apple/Brin Wojcicki Foundation/NVIDIA/Intuitive Surgical /Webcor Builders/Landec/Hassett hardware/Kirk's Steakburgers/Dropbox&Palo Alto High","Paly Robotics","Palo Alto","CA","94301",2018,247,1996,"http://www.palyrobotics.com/","USA","US","FRC","FRC","FIRST Robotics Competition",37.439933,-122.151692
11,"Siemens/John & Margaret Post Foundation/National Defense Education Program/Givaudan/BAE Systems/ASCO/Chameleon Designs/Mt. Olive School District/Prevision Systems & Mt  Olive High","MORT","Flanders","NJ","07836",2018,247,1997,"http://www.mort11.org","USA","US","FRC","FRC","FIRST Robotics Competition",40.853244,-74.708204
16,"Baxter Healthcare Corporation&Mtn Home High Career Academics","Bomb Squad","Mountain Home","AR","72653",2018,247,1996,"frcteam16.org","USA","US","FRC","FRC","FIRST Robotics Competition",36.35262,-92.3667
20,"Global Foundries - Town of Malta Foundation/Bechtel Corporation/GE/BAE SYSTEMS/Advanced Manufacturing Techniques Inc./NYSTAR and the Center for Automation Technologies and Systems at Rensselaer Polytechnic Institute&Shenendehowa High School","The Rocketeers","Clifton Park","NY","12065",2018,247,1992,"http://www.team20.com","USA","US","FRC","FRC","FIRST Robotics Competition",42.85146,-73.79898
21,"The Boeing Company/SGT/Planet Fitness of Daytona/School Board of Brevard County/East Coast Machine/NASA GSDO/Indian River Technology llc/Florida Power & Light/State of Florida&Astronaut High School&Titusville High School","ComBBAT","Titusville","FL","32796",2018,247,1998,"http://www.combbat21.com/","USA","US","FRC","FRC","FIRST Robotics Competition",28.621623,-80.840117
23,"Plymouth Industrial development Corporation/Entergy Corporation/Raytheon & Plymouth North High","PNTA Pilgrim Nuclear Technology Alliance","Plymouth","MA","02360",2018,247,1995,,"USA","US","FRC","FRC","FIRST Robotics Competition",41.87292,-70.64142
25,"Bristol-Myers Squibb Co./Picatinny Arsenal. US Dept of Defense/Abbe Lumber/CIMA/North Brunswick Public Schools/Raider Robotix Parent and Mentor Organization&North Brunswick Twp High","Raider Robotix","North Brunswick","NJ","08902",2018,247,1997,"http://www.raiderrobotix.org","USA","US","FRC","FRC","FIRST Robotics Competition",40.44666,-74.48898
27,"BorgWarner/Mclaren Health Care/FCA Foundation/State Of Michigan /Smith's Disposal/Genisys Credit Union/Clarkston Dermatology/DENSO/TRW/BAE/Applied Manufacturing Technologies/3-Dimensional Services/ARC Investments/Recticel North America Inc./Clarkston Rotary/Chase Plastics /De-sta-co/DAWNCo/Financial Benifits Group/DMT Homes /Faurecia/Superior Buick GMC & Clarkston High School","Team RUSH","Clarkston","MI","48346",2018,247,1997,"http://www.teamrush27.net","USA","US","FRC","FRC","FIRST Robotics Competition",42.722381,-83.418152
28,"Ancora Yacht Service/Ship Ashore Marina&Pierson Middle/High School","Pierson Whalers","Sag Harbor","NY","11963",2018,247,1996,"piersonrobotics.org","USA","US","FRC","FRC","FIRST Robotics Competition",40.97244,-72.32454
31,"Williams/OSDE/AEP/Boeing/National Defense Education Program/Best Buy/Tulsa Stem Alliance&Jenks Hs","Prime Movers","Jenks","OK","74037",2018,247,1997,"http://thethirtyfirst.weebly.com/","USA","US","FRC","FRC","FIRST Robotics Competition",36.013289,-95.979724
33,"Fiat Chrysler Automobiles/The FCA Foundation/Innovation First International/TI Automotive/JDM Consulting/Elite Fence Products/Hubbard Spring/Lochbridge/BAE Systems/Aicas&Notre Dame Preparatory","Killer Bees","Auburn Hills","MI","48326",2018,247,1996,"http://www.killerbees33.com/","USA","US","FRC","FRC","FIRST Robotics Competition",42.66462,-83.27388
34,"Limestone County Board of Education/Boeing/Society of Women Engineers&Limestone Co Area Voc Tech&Limestone County Gifted Program","Rockets","Athens","AL","35611",2018,247,1997,"www.team34rockets.com","USA","US","FRC","FRC","FIRST Robotics Competition",34.798525,-86.966415
41,"Watchung Hills Reg H","RoboWarriors","Warren","NJ","07059",2018,247,1997,"http://www.team41robotics.com","USA","US","FRC","FRC","FIRST Robotics Competition",40.631567,-74.508064
45,"Delphi/AndyMark, Inc./Duke Energy/Foresite/Kokomo Education Foundation/Royal United Mortgage/1Up! Software/HMH Contractors, Inc./Howard County EMA/Indiana Wesleyan University/Kati L. Taylor/Kokomo Area Career Center Collision Repair & Construction Class/Kokomo Area Lions Club/Midwestern Engineers, Inc./Northwest Radiology Network/ProPrints&Kokomo High School","TechnoKats Robotics Team","Kokomo","IN","46902",2018,247,1992,"http://www.technokats.org/","USA","US","FRC","FRC","FIRST Robotics Competition",40.455097,-86.134088
48,"Delphi Corporation/Nordson XALOY&Warren G Harding High School","Delphi E.L.I.T.E.","Warren","OH","44483",2018,247,1998,"http://www.delphielite.com/","USA","US","FRC","FRC","FIRST Robotics Competition",41.27814,-80.8173
51,"GM Propulsion Systems/Delphi/FCA Foundation/Ford Foundation/BAE Systems/Chief Financial Credit Union/Genisys Credit Union&Pontiac High School","The Wings of Fire","Pontiac","MI","48342",2018,247,1996,"http://www.wingsoffire51.com/","USA","US","FRC","FRC","FIRST Robotics Competition",42.646052,-83.273628
53,"Army Research Laboratory/Maryland Space Business Roundtable & Eleanor Roosevelt High","Area 53","Greenbelt","MD","20770",2018,247,1998,"http://erhsroboticsclub.org","USA","US","FRC","FRC","FIRST Robotics Competition",38.996883,-76.884085
56,"Ethicon/Picatinny Arsenal&Bound Brook High","R.O.B.B.E.","Bound Brook","NJ","08805",2018,247,1997,"www.team56.com","USA","US","FRC","FRC","FIRST Robotics Competition",40.569275,-74.539176
57,"Hydraquip Custom Systems Inc./Andy's Hardware/Arc Specialties/CenterPoint Energy Give/Chevron/Country Pure Foods/Employee Owned Holdings Inc./ExxonMobil/Hydraquip Distribution Inc./GE Sensing/Walter P. Moore & Washington B T H S","Leopards","Houston","TX","77018",2018,247,1998,"http://www.leopards57.com/","USA","US","FRC","FRC","FIRST Robotics Competition",29.827979,-95.426715
58,"Robotics Institute of Maine/South Portland School Department&South Portland High School","The Riot Crew","South Portland","ME","04106",2018,247,1996,"http://www.riotcrew.org","USA","US","FRC","FRC","FIRST Robotics Competition",43.620751,-70.291117
59,"Florida Power & Light/RYOBI Tools/Sal Aerospace Engineering (SAE)/Beckman Coulter/Boca Bearings/Ramtech Robotic Summer Camp&Miami Coral Park Senior High","RamTech","Miami","FL","33165",2018,247,1997,"www.ramtech59.com","USA","US","FRC","FRC","FIRST Robotics Competition",25.729513,-80.360218
60,"UNS/FCA/Timeless Cruisers/Cascades Tissue Group/KUSD #20 Kingman High School/Kingman Academy of Learning High School/Purvis Industries/Brackett Aircraft/Potters, Inc/Praxair/Sutton Funeral Home/Mohave County Block Grant/I Corp/West Coast Netting/Kingman Regional Medical Center/True Value/Coast Aluminum/Freiday Construction/Data Max and Wecom/Harley Davidson Foundation/Boeing&Kingman High School&Kingman Academy of Learning - High School&Lee Williams High School","Bionic Bulldogs","Kingman","AZ","86401",2018,247,1997,"www.frcteam60.com","USA","US","FRC","FRC","FIRST Robotics Competition",35.52402,-113.99268
61,"Blackstone Valley Vocational Regional School District/EMC/Foster-Miller/Harry's Pizza Whitinsville/PTC & Blackstone Valley","The Intimidators","Upton","MA","01568",2018,247,1995,"http://www.valleytech.k12.ma.us/Robotics/Team61_index.html","USA","US","FRC","FRC","FIRST Robotics Competition",42.171445,-71.604409
63,"Millcreek Township School District/GE Volunteers & Mcdowell Hs","McDowell Robotics Team 63","Erie","PA","16506",2018,247,1997,"http://www.mcdowellrobotics.com","USA","US","FRC","FRC","FIRST Robotics Competition",42.072704,-80.153452
66,"General Motors Corp/Michigan Department of Education/ZF&Ypsilanti STEMM Middle College","Grizzly Robotics","Ypsilanti","MI","48197",2018,247,1998,"ycsrobotics.org","USA","US","FRC","FRC","FIRST Robotics Competition",42.233132,-83.623767
67,"General Motors Milford Proving Ground & Huron Valley Schools","The HOT Team","Highland","MI","48357",2018,247,1997,"www.hotteam67.org","USA","US","FRC","FRC","FIRST Robotics Competition",42.656319,-83.63633
68,"General Motors/Michigan Department of Education/Fiat Chrysler Automobiles Foundation/Esys Automation/Continental Automotive Systems/ARL Service/Cross the Road Electronics/Michigan Renaissance Festival/CEC Controls & Brandon High School & Holly High School","Truck Town Thunder","Ortonville","MI","48462",2018,247,1998,"http://trucktownthunder.com/","USA","US","FRC","FRC","FIRST Robotics Competition",42.838413,-83.428185
69,"General Dynamics Bluefin Robotics&Quincy Public Schools","HYPER","Quincy","MA","02169",2018,247,1998,"http://www.hyperonline.org/","USA","US","FRC","FRC","FIRST Robotics Competition",42.240464,-71.014144
70,"General Motors/State of Michigan/Fiat Chrysler Automotive Foundation/Kettering University/Patti Engineering/Leoni/Midstates Bolt & Screw Co./Mid Michigan Robotics Alliance/Polyflex Products/Graff Chevrolet/Todd Wenzel Buick&Goodrich High School","More Martians","Goodrich","MI","48438",2018,247,1998,"http://www.70moremartians.com/","USA","US","FRC","FRC","FIRST Robotics Competition",42.910423,-83.507861
71,"School City of Hammond/Caterpillar/City of Hammond/Bemcor International & Area Career Center","Team Hammond","Hammond","IN","46320",2018,247,1996,"www.teamhammond71.com","USA","US","FRC","FRC","FIRST Robotics Competition",41.613152,-87.504662
73,"ME Engineering/RIT FIRST Club/Ron Zarrella & Rochester Science, Technology, Engineering and Mat","The Illumination","Rochester","NY","14609",2018,247,1995,"http://www.edison73.com","USA","US","FRC","FRC","FIRST Robotics Competition",43.174537,-77.559782
74,"Haworth Inc./Profile Films/SpinDance/Russells Technical Products/EBW Electronics/A.D. Bos Vending Services/Magna/Trans-Matic/River City Metals/S2 Yachts/Hann Persinger P.C.&Holland High School&Black River Public School","Team C.H.A.O.S.","Holland","MI","49423",2018,247,1995,"http://www.hollandchaos.com","USA","US","FRC","FRC","FIRST Robotics Competition",42.779463,-86.110617
75,"J&J Consumer & Personal Products Worldwide/Summit Associates/Richmond Foundation/Draftek Design/Kuchavik Consulting & Design/Picatinny Arsenal/Rutgers Dept of Physics and Technology/Active Disposal&Hillsborough High","RoboRaiders","Hillsborough","NJ","08844",2018,247,1996,"http://www.roboraiders.com/","USA","US","FRC","FRC","FIRST Robotics Competition",40.479008,-74.628315
78,"Naval Undersea Warfare Center/DoD STEM/KVH Industries/Raytheon/Rite-Solutions/CVS Health Foundation&Aquidneck Island Robotics 4-H Club","AIR STRIKE","Newport","RI","02841",2018,247,1996,"http://www.air4h.org","USA","US","FRC","FRC","FIRST Robotics Competition",41.52842,-71.310732
79,"Honeywell Aerospace&East Lake High School","Team Krunch","Tarpon Springs ","FL","34688",2018,247,1998,"http://www.teamkrunch.com/","USA","US","FRC","FRC","FIRST Robotics Competition",28.143822,-82.68011
81,"Honeywell/Freeport School District 145/Ultrasonic Power Corporation/Trez Turning/Morse Electric/Kiwanis Clubs of Freeport/RestorX/Papa Murphy's/Atkins Energy/Culver's of Freeport & Freeport High School & Lena-Winslow High School","MetalHeads","Freeport","IL","61032",2018,247,1994,"www.team81robotics.com","USA","US","FRC","FRC","FIRST Robotics Competition",42.302242,-89.635039
85,"Herman Miller Foundation/System Components, Inc/Trans-matic/NUVAR Incorporated/ITW  Drawform/Request Foods/Lakeshore Cutting/Mead Johnson Nutritionals/ODL/Gentex/Midway Machine Techlologies/Town & Country Group/Plascore/Consumers Energy/Global Concepts/Disher/JR Automation&Zeeland West High School&Zeeland East High School","B.O.B. (Built on Brains)","Zeeland","MI","49464",2018,247,1996,"www.bob85.com","USA","US","FRC","FRC","FIRST Robotics Competition",42.86688,-85.9686
86,"JEA/VISTAKON Johnson and Johnson Vision Care Products/Black and Veatch Engineering/Johnson Controls, Inc. & Stanton College Preparatory","Team Resistance","Jacksonville","FL","32217",2018,247,1998,"http://www.teamresistance.org","USA","US","FRC","FRC","FIRST Robotics Competition",30.237412,-81.617619
87,"Lockheed Martin/COMCAST-NBC Universal/DoDSTEM/CPS Metals/Rita's Italian Ice/AndyMark/Chick-Fil-A&Rancocas Valley Reg H","Diablo","Mount Holly","NJ","08060",2018,247,1997,"http://www.rvr87.com/","USA","US","FRC","FRC","FIRST Robotics Competition",39.991815,-74.807251
88,"General Dynamics/Harpak-ULMA/Highland Power Corp&Bridgewater-Raynham Reg","TJ(Squared)","Bridgewater","MA","02324",2018,247,1996,"http://www.tj2.org","USA","US","FRC","FRC","FIRST Robotics Competition",41.981411,-70.974124
93,"Plexus Corp./Appleton Area School District & Tesla Engineering Charter School & East High & North High & West High","NEW Apple Corps","Appleton","WI","54915",2018,247,1997,"http://www.nacteam93.com","USA","US","FRC","FRC","FIRST Robotics Competition",44.282485,-88.41276
94,"Lear Corporation/Denso/FORD MOTOR COMPANY&Southfield High School","The  Ninetyfouriors","Southfield","MI","48033",2018,247,1998,"http://www.Team94.com","USA","US","FRC","FRC","FIRST Robotics Competition",42.472345,-83.293971
95,"Hartford Area Career and Technology Center/Byrne Foundation/Hypertherm/SolidWorks&Hartford Area Career and Technology Center","Grasshoppers","White River Junction","VT","05001",2018,247,1997,"http://www.frcteam95.org/wp/","USA","US","FRC","FRC","FIRST Robotics Competition",43.66231,-72.359191
97,"Akamai Technologies/Draper Laboratories/Vecna Technologies, Inc & Cambridge Rindge and Latin","Bionic Beef","Cambridge","MA","02138",2018,247,1996,"http://www.crlsteam97.com","USA","US","FRC","FRC","FIRST Robotics Competition",42.377465,-71.131249
100,"Woodside High School Foundation/Sequoia Union High School District/Tate Family/Lawrence Searcy/Solutions2Projects/Intuitive Surgical/Nvidia/Woodcraft/Blach Construction Company/Jo Mar Labs/SolidWorks/Alan Steel and Supply Company&Woodside High","The WildHats","Woodside","CA","94062",2018,247,1995,"http://www.team100.org","USA","US","FRC","FRC","FIRST Robotics Competition",37.448337,-122.268736
101,"ClusterBlue /Friends of Striker&St Patrick High School","Striker","Chicago","IL","60634",2018,247,1997,"http://www.stpatrickrobotics.org/","USA","US","FRC","FRC","FIRST Robotics Competition",41.944287,-87.811483
102,"Janssen Pharmaceuticals Inc./Piccatinny Arsenal/Air Liquide/PSEG/Central Jersey Trailer and Hitch LLC/Alloy Welding Company, Inc./Gerber Metal Supply Company/Dr. Victor J. Bauer & Somerville High","The Gearheads","Somerville","NJ","08876",2018,247,1998,"http://www.team102.org","USA","US","FRC","FRC","FIRST Robotics Competition",40.54374,-74.66004
103,"Tohickon Glass & Tile/The Triagiano Foundation/Global Biocides Solutions LLC/Hubbell/Pleasant Valley Auto Care/Amplifier Research/Lutron Electronics, Inc/PHTool/Fred Beans Automotive/Stokes Manufacturing/Harro Hoflinger/Client Link&Palisades Hs","Cybersonics","Kintnersville","PA","18930",2018,247,1997,"http://www.cybersonics.org","USA","US","FRC","FRC","FIRST Robotics Competition",40.508214,-75.235473
107,"Metal Flow/Tommy's Express Car Wash/JR Automation/World Class Prototypes/Koops/Twisthink&Holland Christian High School","Team R.O.B.O.T.I.C.S.","Holland","MI","49423",2018,247,1997,"https://sites.google.com/site/firstrobotics107","USA","US","FRC","FRC","FIRST Robotics Competition",42.779463,-86.110617
108,"Motorola Solutions Foundation/Florida Power & Light/Broward County Public Schools/Apex Machine Company&Dillard High School","SigmaC@T Robotic Team","Fort Lauderdale","FL","33311",2018,247,1995,"www.sigmacats.org","USA","US","FRC","FRC","FIRST Robotics Competition",26.140547,-80.173789
111,"Motorola Solutions Foundation/Bosch/Methode Electronics/Bosch Rexroth/Township High School District 214/Numerical Precision, Inc./Nu-Way Industries/Lendrix/Magnetic Inspection Laboratory/Just Manufacturing/Automatic Precision & Elk Grove High School & Buffalo Grove High School & Rolling Meadows High School & Wheeling High School & Prospect High School & John Hersey High School","WildStang","Arlington Heights","IL","60005",2018,247,1996,"http://www.wildstang.org/","USA","US","FRC","FRC","FIRST Robotics Competition",42.065315,-87.983562
114,"Google/Nvidia/Apple/Intuitive Surgical/Applied Welding Technology/Advanced Component Technology/Los Altos High School&Los Altos High","Eagle Strike","Los Altos","CA","94022",2018,247,1997,"http://lahsrobotics.org/","USA","US","FRC","FRC","FIRST Robotics Competition",37.36656,-122.13696
115,"Fremont Union High School Foundation/Apple/Qualcomm/Intuitive Surgical/Brin-Wojcicki Foundation/Western Digital/Apprion, Inc/Lockheed Martin/EMC2/De Anza College Machine Shop/Pinnacle Manufacturing & Monta Vista High","MVRT","Cupertino","CA","95014",2018,247,1998,"http://www.mvrt.com","USA","US","FRC","FRC","FIRST Robotics Competition",37.314123,-122.044411
116,"NASA Headquarters/The PTR Group, Inc./Mach5&Herndon High","Epsilon Delta","Herndon","VA","20170",2018,247,1996,"http://www.team116.org/","USA","US","FRC","FRC","FIRST Robotics Competition",38.981236,-77.387257
117,"4moms/The Heinz Endowments /Google&Pittsburgh Allderdice Hs","The Steel Dragons","Pittsburgh","PA","15217",2018,247,1998,,"USA","US","FRC","FRC","FIRST Robotics Competition",40.428877,-79.923209
118,"NASA/NASA-JSC & Clear Creek H S","Robonauts","League City","TX","77573",2018,247,1997,"http://www.robonauts.org","USA","US","FRC","FRC","FIRST Robotics Competition",29.503872,-95.092521
120,"NASA/NASA Glenn Research Center/Cuyahoga Community College/GrafTech Corporation/Rockwell Automation & Youth Technology Academy","Cleveland's Team","Cleveland","OH","44115",2018,247,1995,,"USA","US","FRC","FRC","FIRST Robotics Competition",41.496936,-81.6742
121,"NDEP/Raytheon/Town of Middletown/Blowfish/Ferreira-Fenton Fund & Middletown High School","Rhode Warriors","Middletown","RI","02842",2018,247,1996,"http://www.rhodewarrior.org/","USA","US","FRC","FRC","FIRST Robotics Competition",41.516863,-71.286792
122,"NASA Langley Research Center/New Horizons Regional Education Center/TE Connectivity Foundation & New Horizons Regional Education Center","NASA Knights","Hampton","VA","23666",2018,247,1997,,"USA","US","FRC","FRC","FIRST Robotics Competition",37.049912,-76.412922
123,"General Motors Foundation/General Trucking/Ford Motor/Design Systems, Inc/Wayne Metro Community Action Agency /NuVue Foods/National Instruments/DADARA/State of Michigan&Hamtramck High School","Team - Cosmos","Hamtramck","MI","48212",2018,247,1997,,"USA","US","FRC","FRC","FIRST Robotics Competition",42.408353,-83.058329
125,"Northeastern University / Textron Systems / Sonos Inc. / United Technologies / National Grid / PTC / BAE Systems & Boston Latin & Brookline High & Revere High","NUTRONs","Boston","MA","02115",2018,247,1998,"http://www.nutrons.com","USA","US","FRC","FRC","FIRST Robotics Competition",42.341535,-71.094458
126,"Nypro Inc. a Jabil Company&Clinton Senior High","Gael Force","Clinton","MA","01510",2018,247,1992,"https://team126.wordpress.com/","USA","US","FRC","FRC","FIRST Robotics Competition",42.419337,-71.685094
128,"American Electric Power/Grandview Bobcat Boosters, Inc.&Grandview Heights High School","The Botcats","Grandview Heights","OH","43212",2018,247,1997,"http://www.GrandviewFIRST.com/","USA","US","FRC","FRC","FIRST Robotics Competition",39.98726,-83.043294
131,"BAE SYSTEMS/Rockwell Automation/Solid Works/CHAOS Families/Cronin Bisson & Zalinsky, Attorneys at Law/C.H.A.O.S Alumni/Queen City Rotary Club&Manchester Central High School&4-H Hillsborough County, NH","C.H.A.O.S.","Manchester","NH","03104",2018,247,1995,"http://www.chaos131.com","USA","US","FRC","FRC","FIRST Robotics Competition",43.003662,-71.446862
133,"ITS Inc./Lockheed Martin/Robotics Institute of Maine & Bonny Eagle High School","B.E.R.T.","Standish","ME","04084",2018,247,1997,"http://www.bert133.org","USA","US","FRC","FRC","FIRST Robotics Competition",43.744118,-70.411562
135,"Patrick Metals/PHM Educational Foundation Corporations For Education/IN Tek IN Kote/Regal Mold and Die/AM General&Penn High School","Penn Robotics","Mishawaka","IN","46545",2018,247,1998,"http://www.team135.org","USA","US","FRC","FRC","FIRST Robotics Competition",41.680563,-86.160151
136,"Plainfield Board of Education / Ivy Visions, Inc. & Plainfield High","Killer Kardinals","Plainfield","NJ","07060",2018,247,1997,,"USA","US","FRC","FRC","FIRST Robotics Competition",40.63134,-74.43702
138,"Monarch Instrument / Rockwell Automation / BAE Systems / SvenGrafik / Control Air / John Alberts Welding / Rapid Sheet Metal / Amherst Lions Club / County Stores / BB Mold & Souhegan Coop High School","Entropy","Amherst","NH","03031",2018,247,1996,"http://www.robotics138.org","USA","US","FRC","FRC","FIRST Robotics Competition",42.860306,-71.608545
141,"JR Automation Technologies, LLC/Holland Board of Public Works/Koop & Burr Insurance/Bradford Company/Engineered Automation Systems, Inc./Suntec Services/Rutherford & Associates/Egemin Automation/Tric Tool, Ltd.  & West Ottawa High School Campus","WOBOT","Holland","MI","49424",2018,247,1995,"http://team141.net/","USA","US","FRC","FRC","FIRST Robotics Competition",42.821709,-86.146908
144,"Clippard Instruments/HydroTech/P&G/The Kroger Company/Skyline Chili/JWF Technologies/Earl and Florence Simmons Foundation/Millennium Business Solutions/YAC Robotics/Cincinnati Test Systems/MSA, Architects/Northgate Greenhouses/Niemann Plumbing/Craftsman Electric/TP Mechanical &Butler Tech - Colerain High School&Butler Tech - Northwest High School","The R.O.C.K","Cincinnati","OH","45251",2018,247,1994,"http://www.frcteam144.org","USA","US","FRC","FRC","FIRST Robotics Competition",39.25523,-84.589734
145,"NY Tech Valley FIRST Sponsors/Follett Foundation/Greater Norwich Foundation/Otis Thompsen Foundation/Peptis Foundation/Anna Mabey Foundation/The Balloon Detail & Norwich High School & Sherburne-Earlville Senior High School","T-Rx","Norwich","NY","13815",2018,247,1997,"http://www.trx145.net/","USA","US","FRC","FRC","FIRST Robotics Competition",42.530787,-75.524876
148,"Innovation First International/L-3 Mission Integration/Texas Workforce Commission & GREENVILLE H S","Robowranglers","Greenville","TX","75402",2018,247,1992,"http://www.robowranglers148.com/","USA","US","FRC","FRC","FIRST Robotics Competition",33.071077,-96.085608
151,"MakeIt Labs/GHO Ventures/Parker Hannifin/Benchmark Electronics/BAE Systems/3rd Degree Safety Solutions/Northeast Delta Dental/Think For Fun/RBC Generational Wealth Management Group/Pat Clancy Realty LLC&Family/Community","Tough Techs","Nashua","NH","03062",2018,247,1992,"http://www.nashua151.org","USA","US","FRC","FRC","FIRST Robotics Competition",42.726609,-71.499556
155,"United Techologies Pratt & Whitney Division, East Hartford, CT & Berlin High School & Catherine M. Mcgee Middle School","The Technonuts","Berlin","CT","06037",2018,247,1994,"http://usfirst.berlinwall.org/","USA","US","FRC","FRC","FIRST Robotics Competition",41.60778,-72.7701
156,"General Electric Transportation/Gannon University&Fairview Hs","RPM  - Robotics Plus Mayhem ","Fairview","PA","16415",2018,247,1997,"http://www.rpm156.com/","USA","US","FRC","FRC","FIRST Robotics Competition",42.040104,-80.238339
157,"Boston Scientific/Avidia Bank/Raytheon/Entwistle&Assabet Valley Voc Hs","AZTECHS","Marlborough","MA","01752",2018,247,1995,"http://www.aztechs157.org","USA","US","FRC","FRC","FIRST Robotics Competition",42.349703,-71.546947
159,"Nordson/AMD/GST/Wolf Robotics/Hewlett Packard/Advanced Energy/Metal Distributors/DGCD/Exponential Engineering/Ft Collins Plastics/Gulley Greenhouse/PHS Alpine Robotics&Poudre High School","Alpine Robotics","Fort Collins","CO","80521",2018,247,1998,"http://www.alpinerobotics.com/","USA","US","FRC","FRC","FIRST Robotics Competition",40.584979,-105.114124
166,"The Bull Family/BAE Systems/PTC/Raytheon/AAVID THERMALLOY&Merrimack High School","Chop Shop","Merrimack","NH","03054",2018,247,1995,"http://www.chopshop166.com","USA","US","FRC","FRC","FIRST Robotics Competition",42.863038,-71.516973
167,"Rockwell Collins/Aero Antenna Technology & Iowa City High School & West Senior High School","Children of the Corn","Iowa City","IA","52246",2018,247,1998,"http://www.icrobotics.org","USA","US","FRC","FRC","FIRST Robotics Competition",41.654177,-91.560065
171,"John Deere/University of Wisconsin - Platteville & Platteville High","Cheese Curd Herd","Platteville","WI","53818",2018,247,1995,"http://www.team171.com","USA","US","FRC","FRC","FIRST Robotics Competition",42.747092,-90.496206
172,"Lanco Assembly Systems/Adobe/IDEXX Laboratories/Robotics Institute of Maine/P&G Tambrands Inc./Texas Instruments & Falmouth High School & Gorham High School","Northern Force","Gorham","ME","04038",2018,247,1996,"http://www.northernforce.org/wordpress","USA","US","FRC","FRC","FIRST Robotics Competition",43.698538,-70.456236
173,"United Technologies/Stanley/CNC Software/Eppendorf&Tolland High School&Ellington High School&Connecticut Ib Academy&East Hartford High School","RAGE Robotics","Tolland","CT","06084",2018,247,1995,"http://ragerobotics.com","USA","US","FRC","FRC","FIRST Robotics Competition",41.872855,-72.372213
174,"UTC Carrier/Lockheed Martin/Welch Allyn/SRC&Liverpool High School","Arctic Warriors","Liverpool","NY","13090",2018,247,1998,"http://www.snobot.org/","USA","US","FRC","FRC","FIRST Robotics Competition",43.149327,-76.223372
175,"United Technologies Aerospace Systems - Space Systems/PTC & Enfield High School","Buzz Robotics","Enfield","CT","06082",2018,247,1996,"http://buzzrobotics.org","USA","US","FRC","FRC","FIRST Robotics Competition",41.986942,-72.565275
176,"UTC Aerospace Systems&Windsor Locks High School&Suffield High School","Aces High","Windsor Locks","CT","06096",2018,247,1996,"http://www.aceshigh176.org","USA","US","FRC","FRC","FIRST Robotics Competition",41.925995,-72.643635
177,"United Technologies & South Windsor High School","Bobcat Robotics","South Windsor","CT","06074",2018,247,1995,"http://www.bobcatrobotics.org","USA","US","FRC","FRC","FIRST Robotics Competition",41.83488,-72.57132
178,"UTC Otis Elevator/Parker Hannifin Corp. Fluid Control Div./Sikorsky/ebm-papst Inc.&Farmington High School","The 2nd Law Enforcers","Farmington","CT","06032",2018,247,1997,"http://www.farmingtonrobotics.org","USA","US","FRC","FRC","FIRST Robotics Competition",41.725812,-72.835995
179,"Propp Family Foundation/Canon/EDF/Lockheed Martin/FP&L/Florida Turbine Technologies/Aerojet Rocketdyne/State of Florida&Inlet Grove Community High School&Suncoast Community High School","Children of the Swamp","West Palm Beach","FL","33404",2018,247,1998,"http://www.179swampthing.org","USA","US","FRC","FRC","FIRST Robotics Competition",26.779152,-80.073595
180,"Pratt & Whitney/Florida Power & Light/UL/ANJAC/Education Foundation of Martin County&South Fork High School&Clark Advanced Learning Center&Martin County High School&Jensen Beach High School","S.P.A.M.","Stuart","FL","34997",2018,247,1998,"http://www.spamrobotics.com","USA","US","FRC","FRC","FIRST Robotics Competition",27.138891,-80.214592
181,"United Technologies/Pratt & Whitney/Stanley Black & Decker&Hphs Academy of Engineering and Green Technology&Pathways to Technology Magnet School","Birds Of Prey","Hartford","CT","06106",2018,247,1998,"http://www.bop181.org","USA","US","FRC","FRC","FIRST Robotics Competition",41.74668,-72.696298
188,"Scotiabank/Sable Metal Fabrication Inc./Toronto District School Board&Woburn Collegiate Institute","Blizzard","Toronto","ON","M1G 3M3",2018,247,1998,"http://www.team188.com","Canada","CA","FRC","FRC","FIRST Robotics Competition",43.777659,-79.226634
190,"WPI&Ma Academy for Math and Science School","Gompei and the H.E.R.D.","Worcester","MA","01609",2018,247,1992,"http://users.wpi.edu/~first/","USA","US","FRC","FRC","FIRST Robotics Competition",42.276415,-71.819491
191,"Xerox Corporation/Sikorsky · Lockheed Martin&Joseph C Wilson Magnet High School&Joseph C Wilson Foundation Academy","X-CATS","Rochester","NY","14605",2018,247,1992,"http://www.x-cats.org","USA","US","FRC","FRC","FIRST Robotics Competition",43.165247,-77.600096
192,"Robert Bosch LLC/SRI/Madco Welding Supply/Vander-Bend/Sentient Energy/GRT parents & alumni/Palo Alto Unified School District&Henry M Gunn HS","GRT","Palo Alto","CA","94306",2018,247,1997,"http://www.gunnrobotics.com","USA","US","FRC","FRC","FIRST Robotics Competition",37.417097,-122.131989
193,"Mt. Olive Board of Education/Mount Olive Robotics Education Association & Mt  Olive High","MORT Beta","Flanders","NJ","07836",2018,247,1997,"www.mort11.org","USA","US","FRC","FRC","FIRST Robotics Competition",40.853244,-74.708204
195,"United Technologies/Tiger Enterprises/Construction Insight, Inc./Mohawk Northeast/Saucier Mechanical Services/Pyramid Technologies/Ametek-Hayden Kerk Motion Solutions/Conveyco & Southington High School","CyberKnights","Southington","CT","06489",2018,247,1998,"http://www.team195.com","USA","US","FRC","FRC","FIRST Robotics Competition",41.607535,-72.870394
199,"Google/Pentair Thermal Management/Sequoia Union High School District/Oracle/Qualcomm/Brin Wojcicki Foundation/Intuitive Surgical/Abbott Fund/Bot Bash/Jameco Electronics/Solidworks/SRI International/Carlmont Academic Foundation/Carlmont PTSA&Carlmont High","Deep Blue","Belmont","CA","94002",2018,247,1998,"http://carlmontrobotics.org/","USA","US","FRC","FRC","FIRST Robotics Competition",37.51445,-122.296118
201,"General Motors Research and Development/The FCA Foundation/Gallagher-Kaiser Corporation/The State of Michigan/Rochester Community Schools Foundation/TARDEC - NDEP/Genisys Credit Union/DSM Engineered Plastics /Denek Contracting/Oakland University School of Engineering & Computer Science/Chet's Rent-All&Rochester High School","The FEDS","Rochester","MI","48307",2018,247,1998,"http://www.feds201.com/","USA","US","FRC","FRC","FIRST Robotics Competition",42.657341,-83.123033
203,"Campbell's Soup&Camden Co Tech  Gloucester","SOUP-er BOTS","Sicklerville","NJ","08081",2018,247,1998,"http://www.team203.com","USA","US","FRC","FRC","FIRST Robotics Competition",39.773333,-75.006667
204,"Eastern Regional High School Board of Education/Eastern Educational Foundation/Lockheed Martin/Renesas & Eastern High","Eastern Robotic Vikings","Voorhees","NJ","08043",2018,247,1998,"http://www.team204.tk/","USA","US","FRC","FRC","FIRST Robotics Competition",39.84652,-74.960981
207,"Walt Disney Imagineering / The Boeing Company /  Roddenberry Foundation / Space X / Northrop Grumman Aerospace Systems / Indusrtial Metal Supply  / Cooler Master & Hawthorne High","METALCRAFTERS","Hawthorne","CA","90250",2018,247,1999,"HHSCouagrs.org/engineeing ","USA","US","FRC","FRC","FIRST Robotics Competition",33.9153,-118.351309
213,"Symbotic/Timken/Smiths Medical & Keene High School","The Dirty Birds","Keene","NH","03431",2018,247,1999,,"USA","US","FRC","FRC","FIRST Robotics Competition",42.938975,-72.285756
216,"Hepfer & Associates & Grandville High School","More RoboDawgs","Grandville","MI","49418",2018,247,1999,,"USA","US","FRC","FRC","FIRST Robotics Competition",42.896187,-85.756061
217,"Ford Motor Company/Innovation First International & Utica High School","ThunderChickens","Sterling Heights","MI","48314",2018,247,1999,"http://www.thunderchickens.org","USA","US","FRC","FRC","FIRST Robotics Competition",42.603554,-83.056445
219,"Google/Arxscan/Picatinny DOTC-Stem&Warren Hills Reg High Sch","Team Impact","Washington","NJ","07882",2018,247,1999,"http://whrobotics.wixsite.com/warrenhillsrobotics","USA","US","FRC","FRC","FIRST Robotics Competition",40.759714,-75.008161
222,"Guyette Communication/Procter and Gamble/Print to 3D/Northeast PA Industrial Resource Center/Tunkhannock Chapter of the Rotary International & Tunkhannock Hs","Tigertrons","Tunkhannock","PA","18657",2018,247,1999,"http://tigertrons.net/","USA","US","FRC","FRC","FIRST Robotics Competition",41.5374,-75.97452
223,"Johnson & Johnson / Ajac Electric / Turner Pharmaceutical / Eagle Electric / Picatinny STEM  / Reno's Appliances / Teradata & Lakeland Reg H","Xtreme Heat","Wanaque","NJ","07465",2018,247,1999,"http://www.team223.com","USA","US","FRC","FRC","FIRST Robotics Competition",41.053747,-74.281246
224,"Mars International/ARDEC Picatinny - NDEP /L'Oreal USA/QTS Data Centers/F&A Machine&Piscataway Twp High","The Tribe","Piscataway","NJ","08854",2018,247,1999,"http://www.team224.com","USA","US","FRC","FRC","FIRST Robotics Competition",40.552711,-74.458211
225,"PRESIDIO/NRG/St. Onge Company/TE Connectivity/Coupling Corporation of America/York County Community Foundation/DLA Piper/ASGCO Complete Conveyor Solutions/Leidos/BAE Systems/DeWALT/Penn-Air & Hydraulics/Google&TechFire Robotics of York","TechFire","York","PA","17402",2018,247,1999,"http://www.techfire225.com/","USA","US","FRC","FRC","FIRST Robotics Competition",39.97683,-76.685313
226,"General Motors ME Vehicle Systems/Delphi Foundation/Michigan Department of Education/Department of Defence: National Defense Education Program of TARDEC/Gallagher-Kaiser Corporation/Troy Foundation for Educational Excellence/Stanley&Troy High School&Athens High School","Hammerheads","Troy","MI","48098",2018,247,1999,"http://www.hammerhead226.org/","USA","US","FRC","FRC","FIRST Robotics Competition",42.603558,-83.176258
228,"United Technologies/Trail of Terror/Meriden Public Schools/R&D Precision/Micro Insert Inc./Mnt View Power Eqiupment&Francis T. Maloney High School&Orville H. Platt High School&Mark T. Sheehan High School&Lyman Hall High School","GUS Robotics","Meriden","CT","06450",2018,247,1999,"http://www.team228.org","USA","US","FRC","FRC","FIRST Robotics Competition",41.533886,-72.799816
229,"Clarkson University/E/One/Lockheed Martin/North Country Collision/Stewart's Shops/Italian Affair/SeaComm Federal Credit Union/Massena Savings and Loan/Verizon/Jefford's Steel and Engineering Company & Norwood-Norfolk School & Massena Senior High School","Division By Zero","Potsdam","NY","13699",2018,247,1999,,"USA","US","FRC","FRC","FIRST Robotics Competition",44.67116,-74.986199
230,"United Technologies/Sikorsky/OEM Controls/Pitney Bowes/Intuitive Surgical/Boeing & Shelton High School","Gaelhawks","Shelton","CT","06484",2018,247,1999,"http://www.shsrobotics.org","USA","US","FRC","FRC","FIRST Robotics Competition",41.31354,-73.1373
231,"NASA/Texas Workforce Commisson/Oceaneering Space Systems/LyondellBasell/Chevron Phillips & Pasadena Independent School District","High Voltage","Pasadena","TX","77502",2018,247,1998,"http://www.team231.com","USA","US","FRC","FRC","FIRST Robotics Competition",29.679942,-95.19844
233,"NASA Kennedy Space Center/BECHTEL/School Board of Brevard County/Boeing/PTC/Lockheed Martin/DRS/GDSO/Health 1st/Millennium Engineering/Rockledge Rotary/Craig Technologies/NASA Alumni Association/MEA/Cape Canaveral Technical Society & Rockledge Senior High School & Satellite Senior High School & Cocoa Beach Junior/Senior High School & Space Coast Junior/Senior High School & Viera High School","The Pink Team","MELBOURNE","FL","32955",2018,247,1999,"http://www.thepinkalliance.org","USA","US","FRC","FRC","FIRST Robotics Competition",28.313343,-80.723283
234,"Allison Transmission/Rolls-Royce/Morris Machine/Dow AgriScience/Renaissance Electronic Services/Society of Women Engineers/Our Proud Grandmas/Indiana Space Grant&Perry Meridian High School","Cyber Blue","Indianapolis","IN","46217",2018,247,1999,"http://cyberblue234.com/site/","USA","US","FRC","FRC","FIRST Robotics Competition",39.667568,-86.198814
236,"Dominion Millstone Power Station/Lyme-Old Lyme Education Foundation (LOLEF)/Lyme-Old Lyme Public Schools/Brooks Associates Precision Machine Tools & Lyme-Old Lyme High School","Techno-Ticks","Old Lyme","CT","06371",2018,247,1999,"http://www.technoticks236.com","USA","US","FRC","FRC","FIRST Robotics Competition",41.328807,-72.309397
237,"Siemon Company/United Technologies Corporation/TUV Rheinland/Trumpf&Watertown High School","Black Magic Robotics","Watertown","CT","06795",2018,247,1999,"http://team237.com/","USA","US","FRC","FRC","FIRST Robotics Competition",41.605821,-73.1257
238,"Bosch/Texas Instruments&Manchester Memorial High School","Crusaders","Manchester","NH","03103",2018,247,1999,"frc238.org","USA","US","FRC","FRC","FIRST Robotics Competition",42.965798,-71.438793
240,"DTE Energy / Plastic Omnium/La-z-Boy/Flat Rock Metal/Red Lobster/Center For Progressive Health & Wellness&Jefferson High School","TEMPEST","Monroe","MI","48162",2018,247,1999,"www.team240.org","USA","US","FRC","FRC","FIRST Robotics Competition",41.94,-83.313333
244,"MH Labs & Grandville High School","RoboDawgs 3D","Grandville","MI","49418",2018,247,1999,,"USA","US","FRC","FRC","FIRST Robotics Competition",42.896187,-85.756061
245,"GM Global Product Operations/FCA Foundation/R & G Drummer/Department of Defense STEM (DoDSTEM)/State of MI FRC Grant/Valeo Thermal Systems/Magna Powertrain/TEK PROS TODAY/Friends & Family of the Adambots/Thyssenkrupp System Engineering Inc./Doolin and Haddad Dentistry&Rochester Adams High School","Adambots","Rochester","MI","48306",2018,247,1999,"www.adambots.com","USA","US","FRC","FRC","FIRST Robotics Competition",42.724767,-83.149761
246,"Boston University & Boston University Academy","Overclocked","Boston","MA","02215",2018,247,1999,"http://www.bu.edu/bufirst/","USA","US","FRC","FRC","FIRST Robotics Competition",42.344927,-71.101619
247,"Terminal Supply/AMG Advanced Manufacturing Group/DADARA Ford Motor Company/FCA Foundation/Berkley Education Foundation/Eaton Corporation/24 Group/Solid Works&Berkley High School&Shrine Catholic High School","Da Bears","Berkley","MI","48072",2018,247,1999,"http://www.247dabears.com","USA","US","FRC","FRC","FIRST Robotics Competition",42.502236,-83.185811
250,"Bechtel/United Technologies Corporation/The Foundation for Engineering Education/GE /Metal Supermarkets/Clark Industrial Park/Advanced Manufacturing Technologies, Inc./Miller Mechanical Services/Stewart's Foundation/Albany Society of Engineers/Rensselaer/All U, Inc&Colonie Central High School","The Dynamos","Colonie","NY","12205",2018,247,1999,,"USA","US","FRC","FRC","FIRST Robotics Competition",42.714746,-73.821155
253,"SMUHSD / Brin Wojcicki Foundation & Mills High","Mills Robotics Team","Millbrae","CA","94030",2018,247,1999,"http://millsrobotics.com","USA","US","FRC","FRC","FIRST Robotics Competition",37.599952,-122.400126
254,"NASA/NASA Ames Research Center/Apple/Google/Innovation First International/Analog Devices/AMEX Plating/BAE Systems/The Wong Family/Brin Wojcicki Foundation/Lockheed Martin/West Coast Products/Qualcomm/Intuitive Surgical/Cisco/Gilbert Spray Coat/Applied Welding/Dropbox/Orange Vise Company/Four-D Metal Finishing/Vivid-Hosting & Bellarmine College Preparatory","The Cheesy Poofs","San Jose","CA","95126-1215",2018,247,1999,"https://www.team254.com","USA","US","FRC","FRC","FIRST Robotics Competition",37.320261,-121.917689
256,"Apple/Brin Wojcicki Foundation&Willow Glen High","Robo-Rams","San Jose","CA","95125",2018,247,1999,,"USA","US","FRC","FRC","FIRST Robotics Competition",37.293628,-121.897822
263,"Retlif Testing Laboratories/Check-Mate Industries, Inc./H.A. Guden Co., Inc./Philip Ross Industries, Inc./Sachem Robotics Team 263 Booster Club/Muller Martini Corp./Bryan Cave/Health Diagnostics Management, LLC/International Union of Operating Engineers/High Tech Brazing, Inc./Robert and Edwina Cox/Gregory and Jeanne Heinemann/Tritech Healthcare Management, LLC&Sachem High Schools North and East","Sachem Aftershock","Ronkonkoma","NY","11779",2018,247,1999,"http://www.first263.org","USA","US","FRC","FRC","FIRST Robotics Competition",40.81812,-73.1208
265,"Johnson & Johnson/Picatinny STEM / DOD STEM & Lakeland Reg H","Moderate Heat","Wanaque","NJ","07465",2018,247,1999,,"USA","US","FRC","FRC","FIRST Robotics Competition",41.053747,-74.281246
269,"John Deere/3M/GE Volunteers of GE Healthcare/Sharp Packaging Systems/Milwaukee School of Engineering/Society of Manufacturing Engineers&Oconomowoc High","CooneyTech","Oconomowoc","WI","53066",2018,247,1999,"http://www.cooneyrobotics.com/","USA","US","FRC","FRC","FIRST Robotics Competition",43.105369,-88.479152
271,"Bay Shore Union Free School District /North Atlantic Industries /Sartorius-Stedim/Apple Appliance Repair Inc./United Way/Festo Corporation /BAE Systems/Suffolk Transportation System /Public Metals Corp. /South Country PFA&Bay Shore Senior High School","Mechanical Marauders","Bay Shore","NY","11706",2018,247,1999,"http://www2.bayshoreschools.org/robotics/","USA","US","FRC","FRC","FIRST Robotics Competition",40.636111,-73.197222
272,"Comcast NBCUniversal/Lockheed Martin/ASI Technologies/SCTE Foundation/Lansdale Cannoneers Sportsman Club /ICON Clinical Research PLC./Glaxo Smith Kline/Remington & Vernick Engineers/Rajant Corporation/SolidWorks/IBEW Local 654&Lansdale Catholic High School","Cyber-Crusaders","Lansdale","PA","19446",2018,247,1998,"http://www.frc272.com/","USA","US","FRC","FRC","FIRST Robotics Competition",40.235193,-75.289081
279,"Dana Incorporated & Toledo Technology Academy High School","Tech Fusion","Maumee","OH","43537",2018,247,1999,"http://www.techfusion-279.com","USA","US","FRC","FRC","FIRST Robotics Competition",41.576929,-83.664917
280,"DENSO/Ford Motor Company/DADARA/MDE/AEL Span/ETC - Environmental Testing & Consulting/Taylor Rotary/A-Lot Paving/Taylor Foundation for Educational Excellence & Taylor Career & Technical Center ","TnT","Taylor","MI","48180",2018,247,1999,,"USA","US","FRC","FRC","FIRST Robotics Competition",42.234324,-83.269312
281,"Michelin/Greenville Technical College/Laserflex South/Baldor/ASME&Greenville Technical Charter High&Riverside High&J. L. Mann High Academy&Mauldin High&Southside High&Wade Hampton High&Woodmont High","The GreenVillains","Greenville","SC","29607",2018,247,1999,"http://www.entech281.com","USA","US","FRC","FRC","FIRST Robotics Competition",34.829648,-82.340068
283,"Hamilton Automation/TWL Construction/Greenville County Schools/Lawrence Fabrication/Dixie Rubber/GE/Instron/Schwalm Robotics/Palmetto Graphics/PPG Inc/ECPI University/Northrup Grumman/AFL/SOLIDWorks&Wade Hampton High&Greenville Senior High Academy&J. L. Mann High Academy&Riverside High&Greenville Technical Charter High&Oakbrook Preparatory School","The Generals","Greenville","SC","29609",2018,247,1999,"http://first283.wix.com/first283","USA","US","FRC","FRC","FIRST Robotics Competition",34.897521,-82.398093
287,"William Floyd High School & William Floyd High School","Floyd","Mastic Beach","NY","11951",2018,247,1999,"http://www.wfsd.k12.ny.us/robotics.asp","USA","US","FRC","FRC","FIRST Robotics Competition",40.764527,-72.843517
288,"MH Labs / Hepfer & Associates & Grandville High School","The RoboDawgs","Grandville","MI","49418",2018,247,1999,"http://www.robodawgs.com","USA","US","FRC","FRC","FIRST Robotics Competition",42.896187,-85.756061
291,"GE Volunteers & Northwest Pa Collegiate Academy","CIA - Creativity In Action","Erie","PA","16508",2018,247,1999,"http://www.team291.org","USA","US","FRC","FRC","FIRST Robotics Competition",42.097111,-80.09407
292,"The Delphi Foundation/FCA Foundation/AndyMark, Inc./GM/Monsanto Fund&Western High School","PantherTech","Russiaville","IN","46979",2018,247,1999,"http://panthertech.western.k12.in.us/index.htm","USA","US","FRC","FRC","FIRST Robotics Competition",40.424335,-86.26471
293,"Bristol-Myers Squibb / Smith Foundation / Hopewell Valley Education Foundation / Continuum Dynamics  / SRI International / Onshape / SolidWorks  & Hopewell Valley Central High School","Team S.P.I.K.E.","Pennington","NJ","08534",2018,247,1999,"http://spike293.weebly.com/","USA","US","FRC","FRC","FIRST Robotics Competition",40.332828,-74.775218
294,"Northrop Grumman/Google/John Deere/Raytheon/The Boeing Company/Impresa Aerospace/Cooler Master&Redondo Union High&Mira Costa High","Beach Cities Robotics","Redondo Beach","CA","90277",2018,247,1999,"http://www.bcrobotics.org","USA","US","FRC","FRC","FIRST Robotics Competition",33.832658,-118.38015
295,"KPMG&Granite Bay High","Grizzly Robotics Team","Granite Bay","CA","95746",2018,247,1999,,"USA","US","FRC","FRC","FIRST Robotics Competition",38.74419,-121.191175
296,"Hypertherm HOPE Foundation and Robotmaster/Coveloz Consulting/Robotique FIRST Québec/RBC Phillips Hager and North/Universel Security Equipment/Fruiterie Dollard/Today Tomorrow Apparel & Loyola High School & Sacred Heart","Northern Knights","Montréal","QC","H4B 1R2",2018,247,1999,"http://robotics.loyola.ca","Canada","CA","FRC","FRC","FIRST Robotics Competition",45.45972,-73.63659
297,"The Chrysler Foundation / Delphi / TI Automotive / The State of Michigan / BAE Systems / Inalfa Roof Systems / The National Defense Education Program / Kostal North America / Anderson Customer Pools / Patti Engineering / Hirotec America / AT&T Michigan / COE Press Equipment / The Lake Orion Lions Club & LAKE ORION COMMUNITY HIGH SCHOOL","Dragons 2","Lake Orion","MI","48360",2018,247,1999,,"USA","US","FRC","FRC","FIRST Robotics Competition",42.76632,-83.27802
299,"Family/Community & Valkyrie Robotics","Valkyrie Robotics","Cupertino","CA","95014",2018,247,1998,"https://valkyrierobotics.com","USA","US","FRC","FRC","FIRST Robotics Competition",37.314123,-122.044411
302,"Delphi/General Motors/FCA Foundation/Kostal North America/MI Dept. of Education/BAE Systems/Anderson Custom Pools/The Productivity Team/AT&T Michigan/ESYS Automation/The Lake Orion Review/Green Light Graphics/The LeTendre Family/Victory Custom Trailers&Lake Orion Community High School","The Dragons","Lake Orion","MI","48360",2018,247,1999,"http://www.team302.org/","USA","US","FRC","FRC","FIRST Robotics Competition",42.76632,-83.27802
303,"Bridgewater-Raritan High School/STS Tire & Auto Centers  & Mavis Discount Tires/Picatinny  & DOD Stem/Johnson & Johnson Healthcare Systems, Inc./Nokia Bell Labs/VFW Post 2290/Huawei/J&E Metal Fabricators/CSC/303 RAMP/BAE/Rotor Clip/Verizon/Harris&Brdgwtr  Raritn High Sch","The T.E.S.T. Team","Bridgewater","NJ","08807",2018,247,1999,"http://team303.com/","USA","US","FRC","FRC","FIRST Robotics Competition",40.593164,-74.619513
304,"NRG Energy, Inc. &Washington George Hs","GWHS Robo Griffins","Philadelphia","PA","19116",2018,247,1999,"http://www.team304.com","USA","US","FRC","FRC","FIRST Robotics Competition",40.121574,-75.018481
306,"Al Xander Company, Inc/Al's Homework/American Legion: Elmer C. Carrier Post 365/Augie's Pizza/Braken Funeral Home/Carney and Ruth Attornies at Law/Corry Micronics/Crotty Chev-Olds Inc./Getgo/Green's Graphics/Mircale Mountain Ranch/MPE Machine Tool Inc./Radio Shack/Rosie Marketing/Xander Company Inc./Corry Contract Inc/Corry Lumber Co./Corry Manufacturing Company/Corry Rubber Corporation/Great Lakes Manufacturing, Inc./Johnson Books & Stuff/Rossbacher Insurance Service/Tonnard Mfg. Corp. & Home School & CORRY AREA HS","CRT","Corry","PA","16407",2018,247,1999,"http://www.corryrobotics.com","USA","US","FRC","FRC","FIRST Robotics Competition",41.923367,-79.657272
308,"FCA Foundation/Engineered Abrasives/ZF TRW/Nissan/Tecla Company, Inc./B&P Process Equipment/Midwest Glass Fabricators&Walled Lake Western High School&Walled Lake Central High School&Walled Lake Northern High School","The Monsters","Walled Lake","MI","48390",2018,247,1999,"http://www.monsters308.org","USA","US","FRC","FRC","FIRST Robotics Competition",42.551225,-83.477353
313,"DADARA/Ford Motor Company/DENSO International/The Oakwood Group/Inkorprate Graphics&Wayne Memorial High School","The Bionic Zebras","Wayne","MI","48184",2018,247,1999,"bioniczebras.net","USA","US","FRC","FRC","FIRST Robotics Competition",42.275455,-83.382717
314,"GM Manufacturing/Kettering University/FCA Foundation/Shaltz Automation/Local 370 Plumbers & Pipefitters/Flint Glass Service/Mid States Bolt & Screw/LEONI/A Frame Awards, Inc./Mid-Michigan Robotics Alliance/Interstate Batteries&Carman-Ainsworth High School","The Megatron Oracles","Flint","MI","48532",2018,247,1999,"http://www.bigmo314.com","USA","US","FRC","FRC","FIRST Robotics Competition",43.007712,-83.774965
316,"Microsoft/Picatinny Arsenal/DuPont/The Boeing Company/Salem County Community College&South Jersey Robotics Inc","LuNaTeCs","Penns Grove","NJ","08069",2018,247,1999,"http://www.sjrobotics.com/lunatecs/","USA","US","FRC","FRC","FIRST Robotics Competition",39.70704,-75.4467
319,"Symbotic/SPS New England/Podmore Manufacturing/NDEP/OPTICS 1&Prospect Mountain High School","Big Bad Bob","Alton","NH","03809",2018,247,1999,"http://www.frc319.com","USA","US","FRC","FRC","FIRST Robotics Competition",43.47321,-71.240373
321,"Associated Alumni of Central High School/Comcast/DoD STEM&Central Hs","RoboLancers","Philadelphia","PA","19141",2018,247,1999,"http://www.robolancers.com","USA","US","FRC","FRC","FIRST Robotics Competition",40.03465,-75.144766
322,"General Motors/Axalta/Huntington Bank/Home Depot/Gaines Jewelry/Hilton Screeners/State of Michigan/Flint Community Schools & Southwestern Academy & Northwestern High School","Team F.I.R.E.","Flint","MI","48504",2018,247,1999,"www.FIREteam322.com","USA","US","FRC","FRC","FIRST Robotics Competition",43.035862,-83.74276
323,"Novak Technical Services LLC/Arkansas FIRST Incorporated/John and Meredith Novak/Northwest Arkansas Economic Development District/Entergy&Family/Community","Lights Out","Mountain Home","AR","72653",2018,247,1996,"http://lightsout.rip/index.html","USA","US","FRC","FRC","FIRST Robotics Competition",36.35262,-92.3667
329,"Zebra Technologies & Patchogue-Medford High School","Mohawks","Medford","NY","11763",2018,247,1999,"http://www.team329.com","USA","US","FRC","FRC","FIRST Robotics Competition",40.82592,-72.9861
330,"NASA-JPL/Raytheon/J&F Machine/Boeing&NASA","The Beach Bots","Hermosa Beach","CA","90254-2792",2018,247,1999,"http://www.team330.org","USA","US","FRC","FRC","FIRST Robotics Competition",33.867406,-118.397481
333,"Bloomberg / Pershing Square Foundation / LeNoble Lumber / T's ME Shirt Screening & John Dewey High School","MEGALODONS","Brooklyn","NY","11223",2018,247,1999,"http://www.team333.nyc","USA","US","FRC","FRC","FIRST Robotics Competition",40.59646,-73.972916
334,"Con Edison/Brooklyn Tech Alumni Foundation, Inc./Google/Boeing/Old Mission Capital/GIBC Digital&Brooklyn Technical High School","TechKnights","Brooklyn","NY","11217",2018,247,1999,"www.team334.com","USA","US","FRC","FRC","FIRST Robotics Competition",40.684381,-73.980437
335,"Pershing Square Foundation/Con Edison/Bezos Foundation/MTA-NYC Transit Authority/Polytech/City Tech&Science Skills Center High School at Waters Edge","Skillz Tech Gear Botz","Brooklyn","NY","11201",2018,247,1999,"http://www.wix.com/skillztech/gearbotz335","USA","US","FRC","FRC","FIRST Robotics Competition",40.695472,-73.992723
337,"Logan County Schools/WV Department of Adult-Technical Programs/Ralph R Willis Career & Technical Center/Logan County Commission/Alpha Natural Resources/Vance Enterprise/American Electric Power/Mollett Welding & Ralph R. Willis Vocational Center & Logan High School & Logan County Schools & Chapmanville Sr High School & Man Senior High School","Hard Working Hard Hats","Logan","WV","25601",2018,247,2000,"http://www.firstteam337.org","USA","US","FRC","FRC","FIRST Robotics Competition",37.868777,-81.9885
339,"DoD STEM/Simventions/Stafford County Economic Development Authority/Fredericksburg PC Users Group/Lockheed Martin/NAVSEA  Dahlgren/CGS PTO/Army Night Vision Lab, Fort Belvoir/Northrup Grumman&Commonwealth Gov .Sch.","Kilroy Robotics","Stafford","VA","22554",2018,247,2000,"http://www.kilroy339.org/","USA","US","FRC","FRC","FIRST Robotics Competition",38.460218,-77.437061
340,"Bausch & Lomb Incorporated/Senator Michael Ranzenhofer/C&M Forwarding/Genesee Environmental LLC/Frontier Communications Corporation&Churchville-Chili Senior High School","G.R.R. (Greater Rochester Robotics)","Churchville","NY","14428",2018,247,2000,"http://www.team340.org/","USA","US","FRC","FRC","FIRST Robotics Competition",43.052222,-77.815
341,"DOW Chemical / Comcast / The Boeing Company / BAE Systems / Lockheed Martin / Cobham Defense Electronics / Janssen Biotech Inc. / Johnson & Johnson / Society of Women Engineers / D.i.D. Agency / Blue Bell Technologies / Denney Electric Supply & Wissahickon Shs","Miss Daisy","Ambler","PA","19002",2018,247,2000,"http://www.team341.com/","USA","US","FRC","FRC","FIRST Robotics Competition",40.19076,-75.20658
342,"BOSCH/Robert Bosch, LLC/Dorchester County School District/SPAWAR/Dorchester County Council & Fort Dorchester High","Burning Magnetos","North Charleston","SC","29418",2018,247,2000,"www.first342.org","USA","US","FRC","FRC","FIRST Robotics Competition",32.89296,-80.0595
343,"Itron, Inc./Duke Energy/Schneider Electric Company&School District of Oconee County","Metal-In-Motion","Seneca","SC","29672",2018,247,2000,"http://www.metalinmotion.com/","USA","US","FRC","FRC","FIRST Robotics Competition",34.685658,-82.956989
346,"Rotary Club of Chester / GE / DuPont / EPI & Lloyd C Bird High","RoboHawks","Chesterfield","VA","23832",2018,247,2000,"http://www.robohawks346.com/","USA","US","FRC","FRC","FIRST Robotics Competition",37.40994,-77.61072
348,"Joseph's Garage/Mass Bay Engineering/Society of American Military Engineers (S.A.M.E.)/Bonded Transmission&Norwell High School","Norwell Robotics","Norwell","MA","02061",2018,247,2000,"http://www.norwell-robotics.org","USA","US","FRC","FRC","FIRST Robotics Competition",42.156831,-70.821267
352,"Lockheed Martin & Carle Place Middle Senior High School","The Green Machine","Carle Place","NY","11514",2018,247,2000,"http://www.cps.k12.ny.us/","USA","US","FRC","FRC","FIRST Robotics Competition",40.752349,-73.615237
353,"Trio Hardware/Bloomberg L.P./B & Z Steel Equipment Co. Inc./Just Shelf It/Shoreline Beverage/Family Bagel/Gershow Recycling/Dr. Raphael Strauss Allergy & Asthma/Star Kitchen & Plainview-Old Bethpage/Jfk High School","POBots","Plainview","NY","11803",2018,247,2000,"http://www.pobots.com","USA","US","FRC","FRC","FIRST Robotics Competition",40.780517,-73.478813
354,"Bloomberg & George Westinghouse Career & Technical Ed High Sch","G-House Pirates","Brooklyn","NY","11201",2018,247,2000,"www.withs.org/robotics","USA","US","FRC","FRC","FIRST Robotics Competition",40.695472,-73.992723
357,"The Boeing Company / Upper Darby Education and Arts Foundation / eStop Robotics & UPPER DARBY SHS","Royal Assault","Drexel Hill","PA","19026",2018,247,2000,"http://www.team357.org","USA","US","FRC","FRC","FIRST Robotics Competition",39.95502,-75.32742
358,"GE Volunteers of GE Healthcare & Hauppauge High School","Robotic Eagles","Hauppauge","NY","11788",2018,247,2000,"http://team358.org","USA","US","FRC","FRC","FIRST Robotics Competition",40.816902,-73.210989
359,"State of Hawaii REACH STEM Grant/McInerny Foundation/Castle & Cooke, Inc. Dole Plantation/FirstWind Hawaii/Hawaiian Electric Company/Waialua Federal Credit Union/Pioneer Hi-Bred International/HawaiiUSA Federal Credit Union/Randy and Mary Wood/LockHeed Martin/Turtle Bay Foundation/Oakley, Inc./Golf Concepts-Nike/Skydive Hawaii/McDonalds of Hawaii/PHNSY & IMF/Waialua Hongwanji Mission/Monsanto Hawaii/BAE Systems/Arthur Kobayashi, OD/Waialua High School Foundation/Haleiwa Shingon Mission/Island X Hawaii/HI Central North Complex/R.M. Towill Foundation/Friends of Hawaii Robotics/The Oishi Family/Kalaeloa Partners LP/United Launch Alliance/Waialua Lions Club/Oceanic Time Warner Cable/Chevron Hawaii/HECO Matching Grant/Dole Food Company of Hawaii/Hawaii Visitors Bureau/Coca Cola Hawaii/Kenneth Koga/Kiyoshi Takenaka/Matsuo Takabuki/Team Real Estate/North Shore Chamber of Commerce/Yoshi Yonemura/Clyde and Sarah Miyataki/T.S. Hong/Gordon and Evelyn Kuwada/Sunset Homes LLC & Waialua High & Interm","Hawaiian Kids","Waialua","HI","96791",2018,247,2000,"http://www.waialuarobotics.com","USA","US","FRC","FRC","FIRST Robotics Competition",21.57754,-158.124575
360,"The Boeing Company/Friends of Bellarmine Robotics/Islam Family Foundation/Tacoma Steel Supply/Google/Washington FIRST Robotics/Kel-Tech Plastics/The Rudolph Family/SPEEA Local 2001/The Ross Family/The Murphy Family/Clover Park Technical College/Boeing Employee Credit Union/Rotary of Clover Park/Bamford Foundation/Multicare/State Farm Insurance/Bertolino's Coffee Bar/AREVA Federal Services LLC&Bellarmine Preparatory School","The Revolution","Tacoma","WA","98405",2018,247,2000,"http://www.frc360.com","USA","US","FRC","FRC","FIRST Robotics Competition",47.249001,-122.46533
364,"NASA/NASA Stennis Space Center/Mississippi Power/AVL/Barnes & Noble/DS SolidWorks/Walmart/Raising Canes/Sulfur Operations Support/SEAONE/Holifield Engineering Inc & Gulfport High School","Team Fusion","Gulfport","MS","39507",2018,247,2000,"http://www.firstfusion364.com","USA","US","FRC","FRC","FIRST Robotics Competition",30.394254,-89.037041
365,"DuPont/JP Morgan Chase/On-Board Engineering/The Boeing Company/First State Robotics&Neighborhood Group","Miracle Workerz","Wilmington","DE","19808",2018,247,2000,"http://www.moe365.org","USA","US","FRC","FRC","FIRST Robotics Competition",39.731712,-75.669224
368,"Hawaiian Electric Company/RHT Enterprise/Monsanto Hawaii/DOD STEM/Min Plastics/Industrial Electronics/Many wonderful anonymous donors full of Aloha&President William Mckinley High School","Team Kika Mana","Honolulu","HI","96814",2018,247,2000,"http://www.mckinleyrobotics.org/","USA","US","FRC","FRC","FIRST Robotics Competition",21.301058,-157.848253
369,"Bloomberg & William E Grady Career and Technical Education Hig & Rachel Carson High School for Coastal Studies","High Voltage Robotics","Brooklyn","NY","11235",2018,247,2000,"www.team369.com","USA","US","FRC","FRC","FIRST Robotics Competition",40.582828,-73.951811
371,"Con Edison&Curtis High School","Cyber Warriors","Staten Island","NY","10301",2018,247,2000,,"USA","US","FRC","FRC","FIRST Robotics Competition",40.628781,-74.094599
375,"Con Edison/New Jersey-New York Port Authority & Staten Island Technical High School","Robotic Plague","Staten Island","NY","10306",2018,247,2000,"http://www.team375.com/","USA","US","FRC","FRC","FIRST Robotics Competition",40.566903,-74.120829
378,"MAHLE Behr/Delphi Foundation/GM Components Holdings, LLC/Newfane Lions Club/Olcott Lions Club/Newfane Central Schools&Newfane Senior High School","The Circuit Stompers","Newfane","NY","14108",2018,247,2000,"http://www.circuitstompers.org/","USA","US","FRC","FRC","FIRST Robotics Competition",43.26296,-78.726232
379,"Delphi /Youngstown Electric Supply Company (YESCO)/Home Savings & Loan Foundation/Ron Robinson/Girard-Liberty Rotary Club/General Motors Foundation&Girard Sr High School","RoboCats","Girard","OH","44420",2018,247,2000,"http://www.team379.com","USA","US","FRC","FRC","FIRST Robotics Competition",41.157789,-80.68793
383,"Dorvo Maquinas/Metalaser & Provincia de Sao Pedro HS","Brazilian Machine","Porto Alegre","RS","91340-400",2018,247,2000,"http://www.team383.org/en/index.html","Brazil","BR","FRC","FRC","FIRST Robotics Competition",0,0
384,"Flexicell / GE Volunteers / ShowBest Fixture Corp. / Hermitage Automation / SkyFoundry LLC / Whiteboard Geeks / Slurry Pavers / Henrico Co. Education Foundation / Solidworks & Tucker High","Sparky 384","Richmond","VA","23294",2018,247,2000,"http://www.sparky384.com","USA","US","FRC","FRC","FIRST Robotics Competition",37.630728,-77.544233
386,"Tippmann Innovation/Raytheon/School Board of Brevard County/DRS Network & Imaging Systems/GE/Rockwell Collins/Total Travel Marine/VRCimenatic/The State of Florida/Florida Breeze/NASA GSDO&Melbourne Senior High School","Team Voltage","Melbourne","FL","32901",2018,247,2000,"http://www.teamvoltage.org","USA","US","FRC","FRC","FIRST Robotics Competition",28.074083,-80.630823
388,"Consol Energy/Terra Tech Engineering/Two-Way Radio/AEP & GRUNDY HIGH & HURLEY HIGH & TWIN VALLEY HIGH & COUNCIL HIGH","Maximum Oz","Grundy","VA","24614",2018,247,2000,"http://ghs.buc.k12.va.us","USA","US","FRC","FRC","FIRST Robotics Competition",37.277524,-82.094356
395,"Bloomberg/Port Authority of NY & NJ/The New York Yankees/S&P Global/Columbia University&Morris Academy for Collaborative Studies&Columbia Secondary School&School for Excellence","2 Train Robotics","Bronx","NY","10456",2018,247,2000,"http://2train395.com/","USA","US","FRC","FRC","FIRST Robotics Competition",40.830175,-73.906791
399,"NASA/NASA Armstrong Flight Research Center/Lockheed Martin/The Boeing Company/Northrop Grumman/Lancaster High School/Scaled Composites/Meece Car Audio/Jeffrey H. Stein DDS/Lancaster West Rotary/Lancaster Sunrise Rotary/AV Board of Trade/Rocco's Honda/Antelope Valley Fair Association/California Cogeneration Council/High Desert Medical Group/Theurer Orthodontics/Project Lead The Way/Golden State Jet/Right Way Driving/Pacific Coast Powder Coating/Aeroviroment/JT3 & Lancaster High","Eagle Robotics","Lancaster","CA","93536",2018,247,2000,"http://www.team399.org","USA","US","FRC","FRC","FIRST Robotics Competition",34.775252,-118.471697
401,"Virginia Tech School of Education & Blacksburg High & Auburn High & Eastern Montgomery High & Christiansburg High","Copperhead Robotics","Christiansburg","VA","24073",2018,247,2000,"http://www.team401.org","USA","US","FRC","FRC","FIRST Robotics Competition",37.136439,-80.404
418,"Atlassian/ARM/SMC Pneumatics/Athena Manufacturing/Westbrook Metals/Solidworks/FIRST/LASA Robotics Association&Lasa High School","Purple Haze","Austin","TX","78724",2018,247,2000,"http://www.lasarobotics.org","USA","US","FRC","FRC","FIRST Robotics Competition",30.2942,-97.628001
421,"Pershing Square Foundation / NASA / Bezos Family Foundation / jcpenney & ALFRED E SMITH CAREER AND TECHNICAL HIGH SCHOOL","The Warriors","Bronx","NY","10451",2018,247,2000,"http://www.geocities.com/enchantedforest/dell/9950/team421/team421.html","USA","US","FRC","FRC","FIRST Robotics Competition",40.820195,-73.920218
422,"Afton Chemical/WestRock & Maggie L. Walker Gov. Sch.","Mech Tech Dragons","Richmond","VA","23220",2018,247,2000,,"USA","US","FRC","FRC","FIRST Robotics Competition",37.553206,-77.456383
423,"Cheltenham School District/Lockheed Martin&Cheltenham Hs","Simple Machines","Wyncote","PA","19095",2018,247,2000,"www.423robotics.org","USA","US","FRC","FRC","FIRST Robotics Competition",40.086592,-75.150296
433,"Johnson & Johnson Family of Consumer Companies/Scala/Comcast NBC Universal/Arris Corporation/Apex Display Group/Slawek Orthodontics/NRG/Villanova University & Mount St Joseph Academy","Firebirds","Flourtown","PA","19031",2018,247,2000,"http://www.firstfirebirds433.com","USA","US","FRC","FRC","FIRST Robotics Competition",40.105338,-75.21214
435,"Investment Technology Partners & Longleaf School of the Arts & Robodogs Foundation","Robodogs","Raleigh","NC","27603",2018,247,2000,"http://www.robodogs.org/","USA","US","FRC","FRC","FIRST Robotics Competition",35.714307,-78.660593
441,"Bechtel Corporation/Texas Workforce Commission & Reagan H S","DEVIL DOGS","Houston","TX","77008",2018,247,2000,,"USA","US","FRC","FRC","FIRST Robotics Competition",29.796325,-95.417235
442,"Lowe's /Boeing/Popeyes/AUVSI & Lee High Sch & New Century Tech Demo High Sch","Redstone Robotics","Huntsville","AL","35806",2018,247,2000,"http://redstonerobotics.org/","USA","US","FRC","FRC","FIRST Robotics Competition",34.7573,-86.678606
447,"SMC Corporation of America/Madison County Community Foundation/Go Electric Inc/Xtreme Alternative Defense Systems/DRN Machine&BSA Sakima District Troup 447","Team Roboto","Anderson","IN","46016",2018,247,2000,"http://www.teamroboto.org","USA","US","FRC","FRC","FIRST Robotics Competition",40.097201,-85.681347
449,"DoD STEM/Intelligent Automation Inc./Lassiter and Associates/Emergent Biosolutions/Maryland Space Business Roundtable/Privatin Consulting/Turning Point Global Solutions/Basecamp/CipherTech Solutions/Digital Ocean/Convene/1Password/Coca Cola&Montgomery Blair High","The Blair Robot Project","Silver Spring","MD","20901",2018,247,2000,"http://robot.mbhs.edu/","USA","US","FRC","FRC","FIRST Robotics Competition",39.018164,-77.008298
451,"Dana Holding Corporation & Sylvania Northview High School & Sylvania Southview High School & Springfield High School & Ottawa Hills High School & Anthony Wayne High School & Notre Dame Academy & Otsego High School & Perrysburg High School & Penta Career Center & Wildwood Environmental Academy & Bedford Senior High School","The Cat Attack","Maumee","OH","43537",2018,247,2000,"http://www.thecatattack.org","USA","US","FRC","FRC","FIRST Robotics Competition",41.576929,-83.664917
453,"TRW Automotive/L'Anse Creuse Public Schools & L'Anse Creuse High School","Rockem Sockem Robotics","Clinton Township","MI","48036",2018,247,2000,"www.rockemsockemrobotics.com","USA","US","FRC","FRC","FIRST Robotics Competition",42.593259,-82.911912
456,"US Army Engineer Research & Development Center/Vicksburg-Warren School District/Diane and Donald Cargile/Ginny and Chuck Dickerson/Entergy/National Defense Education Program/NASA&Vicksburg Catholic School&Warren Central High School&Vicksburg High School&Home School","Siege Robotics","Vicksburg","MS","39180",2018,247,2000,"http://www.SiegeRobotics.org/","USA","US","FRC","FRC","FIRST Robotics Competition",32.323121,-90.860809
457,"Booz Allen Hamilton/The Boeing Company/Toyota Motor Manufacturing, Texas, Inc./Prototype Specialist Development /Solidworks/RobotNext/Texas Workforce Commission (FIRST in Texas)/PSI/Alion Science and Technology&South San Antonio High School","⚙️ Grease Monkeys ⚙️","San Antonio","TX","78224",2018,247,2000,"www.greasemonkeys457.org","USA","US","FRC","FRC","FIRST Robotics Competition",29.31201,-98.539722
461,"Caterpillar/Purdue FIRST Programs/Purdue Polytechnic Institute/Roadworks Manufacturing/Colors,Inc.&West Lafayette Jr/Sr High Sch","Westside Boiler Invasion","West Lafayette","IN","47906",2018,247,2000,"http://boilerinvasion.org","USA","US","FRC","FRC","FIRST Robotics Competition",40.495856,-86.96718
467,"Shrewsbury Robotics/Vangy Tool Company&Shrewsbury Sr High","The Colonials","Shrewsbury","MA","01545",2018,247,2000,"http://www.shrewsburyrobotics.org/","USA","US","FRC","FRC","FIRST Robotics Competition",42.286758,-71.72154
468,"Baker College/Staley's/Village Florist/Jack's Place/Lucy Ham Group &Family/Community","Aftershock","Flint","MI","48507",2018,247,2000,"http://team468.com","USA","US","FRC","FRC","FIRST Robotics Competition",42.970942,-83.703232
469,"Comau/AVL/General Motors/Nissan/Ford/CTR Electronics/QUEXCO/Eco-Bat/Solidworks/Lawrence Technological University/BAE/Versatube/State of Michigan/Gorman's Gallery&International Academy","Las Guerrillas","Bloomfield Hills","MI","48304",2018,247,2000,"http://www.lasguerrillas.com","USA","US","FRC","FRC","FIRST Robotics Competition",42.58956,-83.26536
470,"General Motors Corporation / Mach3 / ZF & Ypsilanti New Tech High School","Grizzly Robotics","Ypsilanti","MI","48197",2018,247,2000,"http://ycsrobotics.org","USA","US","FRC","FRC","FIRST Robotics Competition",42.233132,-83.623767
484,"Comcast/Piazza Honda of Springfield &Haverford Shs","Roboforce","Havertown","PA","19083",2018,247,2000,"http://www.team484.org","USA","US","FRC","FRC","FIRST Robotics Competition",39.974773,-75.308851
486,"The Boeing Company/Tancredi's Auto & Truck/3M Dyneon & Strath Haven Hs","Positronic Panthers","Wallingford","PA","19086",2018,247,2000,"http://www.team486.com","USA","US","FRC","FRC","FIRST Robotics Competition",39.889823,-75.370994
488,"Microsoft/The Boeing Company/Rainier Valley Rotary Club/OSPI/SPEEA& xbot robotics&Franklin High School","Team XBot","Seattle","WA","98144",2018,247,2000,"http://www.teamxbot.org","USA","US","FRC","FRC","FIRST Robotics Competition",47.586883,-122.298008
492,"The Boeing Company/Western Integrated Technologies/Washington Office of Superintendent of Public Instruction/Microsoft/Bellevue Schools Foundation/Google/Honeywell/Chor Family/Alaska Airlines/Families and Friends of TRC&International School","Titan Robotics Club","Bellevue","WA","98005",2018,247,2001,"http://www.titanrobotics.net/","USA","US","FRC","FRC","FIRST Robotics Competition",47.615593,-122.16992
494,"General Motors/People of the state of Michigan/Fiat Chrysler Automotive Foundation/Kettering University/Leoni/Patti Engineering/Mid-Michigan Robotics Alliance/Burkland/Mid-States Bolt and Screw & Goodrich High School","Martians","Goodrich","MI","48438",2018,247,2001,"http://www.494themartians.com/","USA","US","FRC","FRC","FIRST Robotics Competition",42.910423,-83.507861
496,"Earl L Vandermeulen High School","Royals","Port Jefferson","NY","11777",2018,247,2001,,"USA","US","FRC","FRC","FIRST Robotics Competition",40.925278,-73.047778
498,"Peoria Unified School District/Bechtel/Salt River Project/Arizona Diamondbacks/BULL / ATOS/Arizona State School Tax Credit Donors/Neumont University/Monument Hospitality/Jack & Connie Graves&Cactus High School","The Cobra Commanders","Glendale","AZ","85306",2018,247,2001,"www.team498.com","USA","US","FRC","FRC","FIRST Robotics Competition",33.620994,-112.181517
499,"Lockheed Martin/First In Texas/Elmendorf Fund/Southwest Research Institute/Texas Institute for Educational Robotics/Akimeka, LLC & MEMORIAL HIGH SCHOOL","Toltechs","San Antonio","TX","78237",2018,247,2001,"http://www.toltechs.com","USA","US","FRC","FRC","FIRST Robotics Competition",29.422667,-98.565747
501,"BURNDY/Dyn/UL/4-H&Manchester West High School&Goffstown High School","The PowerKnights","Manchester","NH","03102",2018,247,2001,"http://www.powerknights.com","USA","US","FRC","FRC","FIRST Robotics Competition",42.975161,-71.506713
503,"Magna Seating Systems (Primary Sponsor)/Denso/The Nissan Foundation/Tata Technologies/Ford Motor Company/Novi Community School District/NGK Sparkplugs/ASCO Numatics Inc./Bright House Networks/Michigan Department of Education&Novi High School","Frog Force","Novi","MI","48375",2018,247,2001,"http://www.frogforce503.org","USA","US","FRC","FRC","FIRST Robotics Competition",42.463733,-83.460384
509,"Bedford School District & Bedford High School","Red Storm","Bedford","NH","03110",2018,247,2001,"http://www.redstorm509.appspot.com/","USA","US","FRC","FRC","FIRST Robotics Competition",42.943642,-71.521201
514,"Switches and Sensors Inc/Alternative Parts Inc/Photonics Industries International Inc/Lintech Components/MP Robotics Booster &Miller Place High School","Miller Place Robotics","Miller Place","NY","11764",2018,247,2001,"http://www.millerplacerobotics.wordpress.com","USA","US","FRC","FRC","FIRST Robotics Competition",40.946583,-72.995207
522,"New York Container Terminal / Con Edison & RALPH R MCKEE CAREER AND TECHNICAL HIGH SCHOOL","ROBO WIZARDS","Staten Island","NY","10301",2018,247,2001,"http://www.robowizards.com","USA","US","FRC","FRC","FIRST Robotics Competition",40.628781,-74.094599
525,"Cedar Falls Community Schools/John Deere/PTC/Rockwell Collins/Denso International America, Inc./Iowa State University College of Engineering/DISTek Integration, Inc/Hawkeye Tool and Die&Cedar Falls High School","Swartdogs","Cedar Falls","IA","50613",2018,247,2001,"http://www.525swartdogs.org","USA","US","FRC","FRC","FIRST Robotics Competition",42.529347,-92.451306
527,"Plainedge Senior High School","Red Dragons","Massapequa","NY","11758",2018,247,2001,"http://www.team527.com/","USA","US","FRC","FRC","FIRST Robotics Competition",40.686884,-73.469397
533,"New York State Assembelywoman Kimberly Jean-Pierre/BAE Systems/Harris EDO Corporation /L3 Communications Narda Microwave /Chivvis Enterprises, Inc. /SIMS STEEL /North East Finishing Company, Inc. /Action Powder Coating  & Lindenhurst Senior High School","The PSIcotics","Lindenhurst","NY","11757",2018,247,2001,"http://www.team533.com","USA","US","FRC","FRC","FIRST Robotics Competition",40.688951,-73.376317
537,"GE Volunteers of GE Healthcare / Rockwell Automation / Red Arrow Labs & Hamilton High","Charger Robotics","Sussex","WI","53089",2018,247,2001,"http://www.team537.org","USA","US","FRC","FRC","FIRST Robotics Competition",43.153034,-88.234855
538,"Marshall County Legislative Delegation/Engineering, Research, and Consulting/Bentley Systems/Arab City Schools Foundation/STRATA-G Solutions&Arab High Sch","Dragon Slayers","Arab","AL","35016",2018,247,2001,,"USA","US","FRC","FRC","FIRST Robotics Competition",34.321343,-86.497114
539,"Trinity Episcopal School","Titan Robotics","Richmond","VA","23235",2018,247,2001,"http://trinityes.org/","USA","US","FRC","FRC","FIRST Robotics Competition",37.50204,-77.56992
540,"ShowBest Fixture Inc./Piedmont Metal Fabricators Inc./Blue Print Automation/TKL/Dupont Sprunance Plant/GE Volunteers of GE Healthcare/mindsensors.com/Henrico Education Foundation/George P. Burdell/Tremco/Century Construction/RVA Dental Care/Richmond Consulting Group&Godwin High","TALON 540 ","Henrico","VA","23238",2018,247,2001,"http://www.team540.com/","USA","US","FRC","FRC","FIRST Robotics Competition",37.602561,-77.663297
545,"Island Trees High School","ROBO-DAWGS","Levittown","NY","11756",2018,247,2001,"http://itrobotics.virtualave.net","USA","US","FRC","FRC","FIRST Robotics Competition",40.726315,-73.517312
547,"NMR Consulting/Steelcase Inc./PAC/TVA/PeopleTec/KBM, Inc./MMI/Lincoln County, TN/Pendergrass Supply/Fayetteville College of Cosmetology/Don's Diesel Truck Performance&Lincoln County High School","Falcon Engineering And Robotics","Fayetteville","TN","37334",2018,247,2001,"http://mws2609.wixsite.com/team547lchsrobotics","USA","US","FRC","FRC","FIRST Robotics Competition",35.151295,-86.574002
548,"General Motors/State of Michigan/AVL/Ford Motor Company/Electro-Matic Products Inc./Perficient Inc./Lochbridge/Elektrobit Automotive/The Hamilton Family/IAC/Gutherie Lumber/Velox CNC&Northville High School","Robostangs","Northville","MI","48168",2018,247,2001,"http://www.robostangs.com","USA","US","FRC","FRC","FIRST Robotics Competition",42.4107,-83.4993
554,"Gateway Community and Technical College, Florence KY/Krauss-Maffei, Florence KY /Tom Jones Academic Competion Fund/Jedson Engineering, Cincinnati OH/Eighty Twenty Design Group, Newport KY&Highlands High School","The Bluegrease Crew","Ft. Thomas","KY","41075",2018,247,2001,"www.HHSrobots.org","USA","US","FRC","FRC","FIRST Robotics Competition",39.091389,-84.495833
555,"Judy and Josh Weston/Montclair Fund for Educational Excellence/Montclair Society of Engineers & Montclair High","Montclair Robotics","Montclair","NJ","07042",2018,247,2001,"http://www.555robotics.org","USA","US","FRC","FRC","FIRST Robotics Competition",40.812954,-74.215386
558,"Yale University/United Illuminating-Avangrid/United Technologies/Comcast NBCUniversal/Parker Hannifin/Best Buy/State Farm&Hill Regional Career High School","Elm City Robo Squad","New Haven","CT","06519",2018,247,2001,"http://www.elmcityrobosquad.org/","USA","US","FRC","FRC","FIRST Robotics Competition",41.294976,-72.938709
564,"Longwood High School","Longwood Robotics","Middle Island","NY","11953",2018,247,2001,"www.longwoodrobotics.weebly.com","USA","US","FRC","FRC","FIRST Robotics Competition",40.87772,-72.955011
568,"BP/JEDC/ASD C&TE/Shannon & Wilson, Inc/IBEW/UAA/Roboterra/Schwartz/Alaska Airlines/International Society of Automation/Washington FIRST&Dimond High School&East High School&Bartlett High School&Steller Secondary School&Polaris K-12 School","Nerds of the North","Anchorage","AK","99502",2018,247,2001,"http://www.akfirstrobotics.org","USA","US","FRC","FRC","FIRST Robotics Competition",61.149085,-149.94278
569,"East Meadow Chamber of Commerce/East Meadow Kiwanis & Home School","Rambots","Westbury","NY","11590",2018,247,2001,"http://www.wix.com/team569/frc","USA","US","FRC","FRC","FIRST Robotics Competition",40.757311,-73.577498
571,"UTC Otis Elevator/The Town of Windsor Connecticut&Windsor High School","Team Paragon","Windsor","CT","06095",2018,247,2001,"http://www.team-paragon.org/","USA","US","FRC","FRC","FIRST Robotics Competition",41.863764,-72.668509
573,"OnStar/General Motors/Ford Motor Company/SolidWorks/Consumers Energy/Diversified Tooling Group & Brother Rice High School","Mech Warriors","Bloomfield Hills","MI","48301",2018,247,2001,"http://team573.com/","USA","US","FRC","FRC","FIRST Robotics Competition",42.541806,-83.281957
578,"Fairport Central School District/Xerox/Gleason - Total Gear Solutions/Avnet/Thomson Reuters/HP Enterprise/PMD Automation/Harris Corporation/Cisco Systems & Fairport Senior High School","R-cubed  - Red Raider Robotics","Fairport","NY","14450",2018,247,2001,"www.fairportrobotics.org","USA","US","FRC","FRC","FIRST Robotics Competition",43.087492,-77.432058
580,"Campbell Hall School&Campbell Hall School","Viking Robotics","Studio City","CA","91604",2018,247,2001,"vikingrobotics580.com","USA","US","FRC","FRC","FIRST Robotics Competition",34.144568,-118.390161
581,"Synnex/BAE Systems/The Brin Wojcicki Foundation/Comcast/Platt Electric/Intuitive Surgical/HP/Bulldog Boosters & San Jos High","Blazing Bulldogs","San Jose","CA","95116",2018,247,2001,"http://www.team581.com","USA","US","FRC","FRC","FIRST Robotics Competition",37.352823,-121.849809
585,"NASA/Lockheed Martin Skunkworks/United Technologies Corporation/Boeing/Northrop Grumman/NDEP/sPower/National Instruments/Society of Women Engineers & Tehachapi High","Cyber Penguins","Tehachapi","CA","93561",2018,247,2001,"http://firstteam585.org","USA","US","FRC","FRC","FIRST Robotics Competition",35.135575,-118.527991
587,"J W Faircloth and Son/United Therapeutics Corporation/Eclectech/Orange County Schools/Greg and Ellen Young/Mack Orthodontics/Carolina Biological Supply Company & Orange High & Cedar Ridge High","Hedgehogs","Hillsborough","NC","27278",2018,247,2001,"http://www.team587.org","USA","US","FRC","FRC","FIRST Robotics Competition",36.07458,-79.07766
589,"NASA/NASA Jet Propulsion Laboratory/Walt Disney Imagineering/WET/DreamWorks Animation/CoolerMaster & Crescenta Valley High","Falkon Robotics","La Crescenta","CA","91214",2018,247,2001,"http://www.cvrobots.com","USA","US","FRC","FRC","FIRST Robotics Competition",34.232506,-118.245761
590,"NASA/Stennis Space Center & Choctaw Central High School","Chahta Warriors","Choctaw","MS","39350",2018,247,2001,"http://www.choctaw.org/robotics","USA","US","FRC","FRC","FIRST Robotics Competition",32.773985,-89.114722
597,"The Boeing Company/USC-MESA/Vertirbi School of Engineering/Dr. Judy Flesh Rosenberg/Arconic Foundation - SkillsUSA/Kissick Family Foundation/NASA/Raytheon/Los Angeles Trade Tech/Supervisor Mark Ridley-Thomas/The William C. Bannerman Foundation/Project Lead The Way/L. A. City Council/X-treme Solutions/Friends of Foshay Robotics Team 597/Computers for Youth/AutoDesk/Iridescent/DirectTV/Society of Women Engineers (SWE)/Perkins Grant/CTEIG/Office of Dr. George Mckenna LAUSD/Stephen and Jill Petty&Foshay Lrn Center","The Wolverines","Los Angeles","CA","90018",2018,247,2001,"http://www.team597.org","USA","US","FRC","FRC","FIRST Robotics Competition",34.030481,-118.318046
599,"Cooler Master/Raytheon/St. Jude Medical/AMD/SAPPHIRE/Toll Brothers/Gigabyte&Granada Hills Charter High","Robodox","Granada Hills","CA","91344",2018,247,2001,"www.therobodox.org","USA","US","FRC","FRC","FIRST Robotics Competition",34.279812,-118.500354
601,"Hampton Bays UFSD/ACE Shinnecock Hardware/Pooltastic&Hampton Bays Secondary School","BayBots","Hampton Bays","NY","11946",2018,247,2001,"http://frcteam601.weebly.com","USA","US","FRC","FRC","FIRST Robotics Competition",40.883963,-72.532083
604,"Leland High School FRC Team 604 Quixilver/IBM/Team Grandma/The Brin Wojcicki Foundation/BAE Systems/Qualcomm/Intuitive Surgical/Leland Bridge/Councilman J. Khamis/Almaden Valley Women's Club/NVIDIA/Exatron/MDR Precision/SOLIDWORKS/Dropbox/GitHub/Hurricane Electric & Leland High","Quixilver","San Jose","CA","95120",2018,247,2001,"http://604Robotics.com","USA","US","FRC","FRC","FIRST Robotics Competition",37.218511,-121.857173
606,"Raytheon/Aerospace Corporation/Northrop Grumman/Los Angeles Trade Technical College/Boys and Girls Club of King Drew/The William C. Bannerman Foundation&King/Drew Medical Magnet High","Cyber Eagles","Los Angeles","CA","90059",2018,247,2001,"http://www.robotics-team606.com","USA","US","FRC","FRC","FIRST Robotics Competition",33.926115,-118.242201
610,"Extrude-A-Trim/Doc-Chef Culinary Enterprise/H. Hatsios Investments/Telus/Open Builds/Crescent School/Balluff/Elkland Capital&Crescent School","Coyotes","North York","ON","M2L 1A2",2018,247,2001,"http://www.team610.com","Canada","CA","FRC","FRC","FIRST Robotics Competition",43.73085,-79.38127
611,"SAIC/South49 Solutions/Blue Ridge Technologies & Langley High","Saxons","McLean","VA","22101",2018,247,2001,"http://langleyrobotics.com/","USA","US","FRC","FRC","FIRST Robotics Competition",38.929874,-77.175966
612,"Northrop Grumman/Booz Allen Hamilton/Micron/Attain/IBEW Local 26&Chantilly Academy","Chantilly Robotics","Chantilly","VA","20151",2018,247,2001,"http://chantillyrobotics.org/","USA","US","FRC","FRC","FIRST Robotics Competition",38.888306,-77.453725
613,"Picatinny STEM / Franklin Township Public Schools & Franklin Twp High","NeoWarriors","Somerset","NJ","08873",2018,247,2001,"www.neowarriors.net","USA","US","FRC","FRC","FIRST Robotics Competition",40.49934,-74.52138
614,"Night Vision and Electronic Sensors Directorate (NVESD)/D & J Tech Service & Hayfield Secondary","Night Hawks","Alexandria","VA","22315",2018,247,2001,"Team614Robotics.org","USA","US","FRC","FRC","FIRST Robotics Competition",38.78448,-77.1252
615,"Google/Bezos Family Foundation/National Defense Education Partnership&Ballou Shs","Knights","Washington","DC","20032",2018,247,2001,,"USA","US","FRC","FRC","FIRST Robotics Competition",38.833027,-76.997902
617,"Highland Springs High","Enginerds","Henrico","VA","23075",2018,247,2001,"http://www.team617.com","USA","US","FRC","FRC","FIRST Robotics Competition",37.546429,-77.325289
619,"University of Virginia School of Engineering and Applied Science & Charlottesville-Albemarle Robotics","Cavalier Robotics","Charlottesville","VA","22902",2018,247,2001,"http://www.CARobotics.org","USA","US","FRC","FRC","FIRST Robotics Competition",38.00028,-78.46362
620,"Bechtel/Atkins/Leidos/Lockheed Martin/Booz Allen Hamilton Inc/JMSAT Corporation/Foresight Engineering/Atlantic Exhibits/Vienna Volunteer Fire Department&Madison High","Warbots","Vienna","VA","22181",2018,247,2001,"http://www.jmhsrobotics.org/","USA","US","FRC","FRC","FIRST Robotics Competition",38.89854,-77.291651
623,"Lockheed Martin/Bechtel/Leidos/SAIC/Aerojet Rocketdyne/OHS PSTA/Integrity Applications Incorporated&Oakton High","Cougar Robotics","Vienna","VA","22181",2018,247,2001,"http://www.team623.org","USA","US","FRC","FRC","FIRST Robotics Competition",38.89854,-77.291651
624,"BP America/Oceaneering/ConocoPhillips/Texas Workforce Commission & Cinco Ranch H S","CRyptonite","Katy","TX","77494",2018,247,2001,"http://www.team624.org","USA","US","FRC","FRC","FIRST Robotics Competition",29.753968,-95.810176
639,"Rheonix/Cornell University/BorgWarner Morse TEC/CBORD/Vector/BAE Systems/IthacaSTEM Advocates&Ithaca Senior High School","Code Red Robotics","Ithaca","NY","14850",2018,247,2001,"http://team639.org/","USA","US","FRC","FRC","FIRST Robotics Competition",42.445573,-76.496428
640,"Con Edison & Thomas a Edison Career and Technical High School","Robo Elite","Jamaica","NY","11432",2018,247,2001,"www.taehs.org","USA","US","FRC","FRC","FIRST Robotics Competition",40.715744,-73.794362
647,"Texas Workforce Commission/Northrup Grumman/Dynamic Designs/Gen. (R) Robert M. Shoemaker/Killeen Independent School District/GEAR UP&Robert M Shoemaker H S","Cyberwolves ","Killeen","TX","76549",2018,247,2001,"https://www.killeenisd.org/Schools/templates/basicWithCarousel/basicWithCarousel.cfm?navBarID=7669&cssFileName=blueMedAndWhite.css&campusCode=189","USA","US","FRC","FRC","FIRST Robotics Competition",31.119841,-97.72972
648,"Arconic/John Deere/Wal-Mart and Sam's Club/Sears Manufacturing, Inc/Moline Foundation/Cobham/Riverstone/Singh Family Foundation&Moline Sr High School&Rock Island High School&Rivermont Collegiate&Pleasant Valley High School&North Scott Senior High School&Davenport West","QC ELITE - Flaming Squirrels","Blue Grass","IA","52726",2018,247,2001,"http://www.qcelite.com/","USA","US","FRC","FRC","FIRST Robotics Competition",41.498229,-90.757156
649,"Sandisk/Apple/Brian and Monica Berkeley/Intuitive Surgical/Joyce and Howard Lorenz/FESTO/Santa Clara Plating Co/SolidWorks/GrabCAD/Screened Images&Saratoga High","M-SET Fish","Saratoga","CA","95070",2018,247,2001,"http://saratogamset.org","USA","US","FRC","FRC","FIRST Robotics Competition",37.274954,-122.021747
653,"Boeing/Texas Workforce Commission & FIRST in Texas/Lockheed Martin & Edison H S","NOSIDE","San Antonio","TX","78212",2018,247,2001,"http://www.edisonengineering.org","USA","US","FRC","FRC","FIRST Robotics Competition",29.478611,-98.487222
662,"Academy School District 20/Verizon/National Defense Education Program/United States Air Force Academy STEM Outreach Program/The Niedringhaus Family/Northrup Grumman/Marco's Pizza/Alvin Fishman, CPA/Fastenal/RIM Technologies/Red Rock Technologies/Broadcom Limited/The Orton-Urbina Family & Air Academy High School & Discovery Canyon Campus School & Pine Creek High School & Rampart High School & the Classical Academy High School & Tca College Pathways","Rocky Mountain Robotics","USAF Academy","CO","80840",2018,247,2001,"http://www.rockymountainrobotics.weebly.com","USA","US","FRC","FRC","FIRST Robotics Competition",38.999759,-104.695596
663,"WRT Management Corp.&Whitinsville Christian School&Whitinsville Christian School","Robonauts","Whitinsville","MA","01588",2018,247,2001,"http://team663.org","USA","US","FRC","FRC","FIRST Robotics Competition",42.122324,-71.671383
668,"Gilbert-Greenstein Family/Google/KLA-Tencor/Boston Scientific/BAE/Solidworks/Evans Analytical Group/Xilinx/The Vezien Family&Pioneer High&Family/Community","The Apes of Wrath","San Jose","CA","95118",2018,247,2001,"www.apesofwrath668.org","USA","US","FRC","FRC","FIRST Robotics Competition",37.257586,-121.889924
670,"FUHSD Foundation/Apple/Google/Ford/F5/April Martin Designs/SolidWorks/Apricot Lane&Homestead High","Homestead Robotics","Cupertino","CA","95014",2018,247,2001,"http://homesteadrobotics.com","USA","US","FRC","FRC","FIRST Robotics Competition",37.314123,-122.044411
677,"Ohio State University/American Electric Power/Abbott Fund/Rev1 Ventures/Valexsands LLC&Columbus School for Girls","Murphy's Outlaws","Columbus","OH","43209",2018,247,2001,"http://firstteam677.wordpress.com/","USA","US","FRC","FRC","FIRST Robotics Competition",39.959129,-82.92899
686,"Bechtel/Lockheed Martin/BAE Systems&Walkersville High&Oakdale High School&Linganore High","Bovine Intervention","Walkersville","MD","21793",2018,247,2001,,"USA","US","FRC","FRC","FIRST Robotics Competition",39.484762,-77.345888
687,"The Boeing Company/Northrop-Grumman/Raytheon/CAMS PTSO & California Academy of Mathematics and Science","The Nerd Herd","Carson","CA","90747",2018,247,2001,"http://www.camsrobotics.org","USA","US","FRC","FRC","FIRST Robotics Competition",33.866528,-118.253036
691,"NASA/Jet Propulsion Laboratory/St Jude Medical/Boston Scientific/NDFP & West Ranch High","Project 691","Valencia","CA","91355",2018,247,2001,"www.team691.org","USA","US","FRC","FRC","FIRST Robotics Competition",34.403591,-118.532784
692,"St. Francis Catholic High School/The Brin Wojcicki Foundation/Bishop-Wisecarver Corporation/Blue Collar Supply/Interstate Plastics&St Francis High School","The Fembots","Sacramento","CA","95819",2018,247,2001,"http://www.sfrobotics.com","USA","US","FRC","FRC","FIRST Robotics Competition",38.569682,-121.438018
694,"Stuyvesant High School Parents Association/DE Shaw/Bloomberg/Con Edison/Ann & Donovan Moore - Wallace Foundation/Abby & Tom Ferguson - Cox & Company/Dr. Joe Ricci/Justin Kim&Stuyvesant High School","StuyPulse","New York","NY","10282",2018,247,2001,"http://www.stuypulse.com","USA","US","FRC","FRC","FIRST Robotics Competition",40.714419,-74.008255
695,"A-1 Manufacturing / The Metal Store / Sign-a-rama / Envision Radio Corporation & Beachwood High School","FIRST Responders","Beachwood","OH","44122",2018,247,2001,"http://www.team695.com","USA","US","FRC","FRC","FIRST Robotics Competition",41.468177,-81.514037
696,"NASA/JPL/Glendale Unified School District/Gene Haas Foundation/Haas Automation/Arconic Foundation/Walt Disney Imagineering/Boeing/HFO Torrance/Honda R&D Americas/MathWorks/Kevco Group/Carlos Gross Jones/Widholm Family/Stone Family/Electromotive&Anderson W. Clark Magnet High","Circuit Breakers","La Crescenta","CA","91214",2018,247,2001,"http://www.team696.org","USA","US","FRC","FRC","FIRST Robotics Competition",34.232506,-118.245761
698,"2017 FRC Hardship Grant/Microchip Technology Inc./Image Craft/Industrial Metal Supply/Port Plastics/UnWired Engineering/Heatsync Labs/Tan Pants Media/SolidWorks&Hamilton High School","Hamilton Microbots","Chandler","AZ","85248",2018,247,2001,"http://hhsrobotics698.weebly.com","USA","US","FRC","FRC","FIRST Robotics Competition",33.2475,-111.87918
701,"Travis USD/Genentech/United Technologies Aerospace Systems/Solano County Office of Education/Salik Syed/Classic Powder Coating/Intuitive Surgical/Unitive/Vintage Paving Co./Republic Services/Delta Grinding Co Inc./TenCate/Vaca Valley Bingo Hall/Pirondini Family/Michael and Margaret Salvador/Dale Salvador and United Way/Teichert/Vanden Robotics Foundation&Vanden High","RoboVikes","Fairfield","CA","94533",2018,247,2001,"http://www.vandenrobotics.com/","USA","US","FRC","FRC","FIRST Robotics Competition",38.285247,-122.008109
702,"&Culver City High","Bagel Bytes","Culver City","CA","90230",2018,247,2001,"http://www.planet702.org","USA","US","FRC","FRC","FIRST Robotics Competition",34.001758,-118.394799
703,"Nexteer&Saginaw Career Complex","Team Phoenix","Saginaw","MI","48602",2018,247,2001,"www.team703.com","USA","US","FRC","FRC","FIRST Robotics Competition",43.420918,-83.974434
704,"General Motors-Arlington Assembly/Lockheed Martin/Pratt & Whitney/Texas Workforce Commission/IEEE Tarrant County/Curbell Plastics/G-S Machine Shop/LR Cannon Enterprises/Decals Plus/Hill's Paint & Body/Control Products Corporation/Kirk England-State  Farm Insurance&So Grand Prairie H S","Warriors","Grand Prairie","TX","75052",2018,247,2001,"http://www.sgprobotics.org","USA","US","FRC","FRC","FIRST Robotics Competition",32.679596,-97.013708
706,"Price Engineering / GE Volunteers / Revere Electric Supply / Rockwell Automation / Axis Automation & Arrowhead High","Cyberhawks","Hartland","WI","53029",2018,247,2001,"http://arrowheadrobotics.org/","USA","US","FRC","FRC","FIRST Robotics Competition",43.106382,-88.351136
708,"Lockheed Martin/Hatboro-Horsham Education Foundation&Hatboro-Horsham Shs","Hatters Robotics","Horsham","PA","19044",2018,247,2001,"http://www.team708.org/","USA","US","FRC","FRC","FIRST Robotics Competition",40.182463,-75.150115
709,"The Boeing Company/Glaxo-Smith-Kline&Agnes Irwin School","Femme Tech Fatale","Bryn Mawr","PA","19010",2018,247,2001,"http://robotics.agnesirwin.org","USA","US","FRC","FRC","FIRST Robotics Competition",40.02636,-75.33438
710,"Pine Crest School","Panther Bot","Fort Lauderdale","FL","33334",2018,247,2001,"http://www.pinecrest.edu","USA","US","FRC","FRC","FIRST Robotics Competition",26.181067,-80.138938
714,"Newark Public Schools District/ARCO STEEL/CAROL FORD RACING/THE KNOTTS COMPANY /COUSE & BOLTEN CO./SHOP RITE KEARNY/THE INVENTION DESIGN&Technology High","Panthera","Newark","NJ","07104",2018,247,2001,"www.714robotics.com","USA","US","FRC","FRC","FIRST Robotics Competition",40.768591,-74.168632
716,"BD/21st Century Fund/C. A. Lindell True Value Hardware and Lumber/Freund's Farm Market and Bakery/AVI International Inc/West State Mechanical Inc&Housatonic Valley Regional High School","Who'sCTEKS","Falls Village","CT","06031",2018,247,2001,"http://www.716robotics.com","USA","US","FRC","FRC","FIRST Robotics Competition",41.96316,-73.31616
743,"Sony/Bloomberg & High School of Computers and Technology","Technobots","Bronx","NY","10467",2018,247,2002,"www.hscomputech.com","USA","US","FRC","FRC","FIRST Robotics Competition",40.873256,-73.870576
744,"Apex Machine Co./Motorola Solutions Foundation/Loucks Engineering & BL Global Enterprises/United Technologies Corporation/The Anderson Family/Hill York Air Conditioning Services & Energy Solutions/The State of Florida&Westminster Academy","Shark Attack","Fort Lauderdale","FL","33334",2018,247,2002,"http://www.sharkattack744.com","USA","US","FRC","FRC","FIRST Robotics Competition",26.181067,-80.138938
746,"Toronto District School Board/Westview Centennial Secondary School/Microsoft/Thorne Innovations&Westview Centennial Secondary School&Westview centennial Secondary School","Gearheads","North York","ON","M3N 1W7",2018,247,2002,,"Canada","CA","FRC","FRC","FIRST Robotics Competition",43.74806,-79.52666
747,"ANSUN Protective Metals/Picatinny Arsenal/Veolia Environmental Services/Nokia Bell Labs&Family/Community","Flight Crew","Middlesex","NJ","08846",2018,247,2002,"www.frc747.com","USA","US","FRC","FRC","FIRST Robotics Competition",40.574785,-74.498817
751,"Nvidia / Pentair & Woodside Priory School","barn2robotics","Portola Valley","CA","94028",2018,247,2002,"http://team751.org/","USA","US","FRC","FRC","FIRST Robotics Competition",37.37986,-122.208569
752,"Science High","The Chargers","Newark","NJ","07103",2018,247,2002,"http://www.shsrobotix.com/website/home.php","USA","US","FRC","FRC","FIRST Robotics Competition",40.737637,-74.196772
753,"Bend Research/Oregon Dept of Education/Microsemi & Mountain View Senior High School","High Desert Droids","Bend","OR","97701",2018,247,2002,"http://www.team753.com/","USA","US","FRC","FRC","FIRST Robotics Competition",44.098205,-121.288771
766,"Google/Abbott Fund/Apple/Sequoia Union High School District/Brin Wojcicki Foundation/ADI/MVCode Code/Levenson family&Menlo-Atherton High","M-A Bears","Atherton","CA","94027",2018,247,2002,"http://www.team766.com","USA","US","FRC","FRC","FIRST Robotics Competition",37.456184,-122.204497
771,"Shaw Almex Industries/UTC Aerospace Systems/Royal Synergies Collision&St. Mildred's Lightbourn School","SWAT","Oakville","ON","L6J 2L1",2018,247,2002,"http://www.swat771.com","Canada","CA","FRC","FRC","FIRST Robotics Competition",43.46177,-79.67009
772,"Centerline/General Motors of Canada/FCA Foundation/Brave Control Solutions/Bell Canada/St Clair College/Reaume Motors/Performance Ford&Sandwich Secondary School","Sabre Bytes","LaSalle","ON","N9J 2J1",2018,247,2002,"http://www.sabrerobotics.com","Canada","CA","FRC","FRC","FIRST Robotics Competition",42.21324,-83.07988
773,"Fiat Chrysler Automotive Group/Centerline/St. Clair College&KINGSVILLE DISTRICT HIGH SCHOOL","Kingsville CavalGears","Kingsville","ON","N9Y 1A6",2018,247,2002,"www.cavalgears773.ca","Canada","CA","FRC","FRC","FIRST Robotics Competition",42.03833,-82.73398
781,"Bruce Power / Lake Huron Learning Centre & Kinetic Knights Robotics","Kinetic Knights","Kincardine","ON","N2Z 2B9",2018,247,2002,"http://www.team781.com/","Canada","CA","FRC","FRC","FIRST Robotics Competition",44.17676,-81.62775
801,"Jacobs Technology/Lockheed Martin/Brevard Public Schools/Brevard County Fire Rescue Station 43/United Lanch Alliance (ULA)/GSDO/Precision, Fabrication, and Cleaning/Bansbach Easylift of N. America/Craig Technologies/Defense Suppliers of Electronic Components Inc./Defense Technologies Inc./LVX System/Millennium Engineering and Intergration Company/Stinger Ghaffarian Technologies (SGT Inc)/East Coast Lumber & Supply Co./Dittmer Air Conditional & Heating Services Inc./Premium Marine/Space Shirts/Crest Cleaners/Brevard Towing/State of Florida&Merritt Island High School&Edgewood Jr/Sr High School&Cocoa Beach Junior/Senior High School","Horsepower","Merritt Island","FL","32953",2018,247,2002,"http://www.team801.com","USA","US","FRC","FRC","FIRST Robotics Competition",28.400081,-80.705159
806,"Empire Environmental Services/Riva Precision Manufacturing&Xaverian High School&Fontbonne Hall Academy","The Brooklyn Blacksmiths","Brooklyn","NY","11209",2018,247,2002,"xaverian.org/robotics","USA","US","FRC","FRC","FIRST Robotics Competition",40.623738,-74.033806
810,"Smithtown Central School District/Ross & Company CPA, PLLC/Law Firm of Grace C. Guiffrida&Smithtown High School East&Smithtown High School-West","The Mechanical Bulls","Smithtown","NY","11787",2018,247,2002,"http://www.smithtownrobotics.com","USA","US","FRC","FRC","FIRST Robotics Competition",40.855292,-73.209738
811,"PTC/Raytheon IDS/FIRST/BAE SYSTEMS/Nashua West Rotary International/MapleLeaf Construction Company/Synergy Resources/Specialty Kitchens&Bishop Guertin High School","Cardinals","Nashua","NH","03060",2018,247,2002,"http://www.team811.com","USA","US","FRC","FRC","FIRST Robotics Competition",42.759073,-71.467632
812,"General Motors Foundation/Qualcomm/LEIDOS/TE Connectivity/Irwin and Joan Jacobs/The University of California at San Diego/The San Diego County Fair&Preuss Sch Ucsd","The Midnight Mechanics","La Jolla","CA","92093",2018,247,2002,"http://www.midnightmechanics.org","USA","US","FRC","FRC","FIRST Robotics Competition",32.877058,-117.230578
815,"CBRE Real Estate/DTE Energy/Ford Motor Company/Telegraph Storage/DTS- Diamond Technical Services/3M/Tech Shop/DADARA/ACUREN/Roger Zielinski&Allen Park High School&Cabrini High School","Advanced Power","Allen Park","MI","48101",2018,247,2002,"www.team815advancedpower.org","USA","US","FRC","FRC","FIRST Robotics Competition",42.253333,-83.208255
816,"Lockheed Martin/Comcast&Inst of Tech  Westampton","Anomaly","Mount Holly","NJ","08060",2018,247,2002,"http://www.bcit.cc/Domain/202","USA","US","FRC","FRC","FIRST Robotics Competition",39.991815,-74.807251
818,"General Motors/Fiat Chrysler Foundation/Michigan Department of Education/Warren Consolidated Schools/McNaughton-McKay/ThyssenKrupp/D & D Machinery Movers/Keykert/C & N Manufacturing/The Donahue Group/KGM Distributors/Whitlock Business Systems/Comau/Carl Ebbinghaus & Warren Mott High School & Sterling Heights Senior H.S. & Butcher Community Center & Cousino Senior High School","Steel Armadillos","Warren","MI","48093",2018,247,2002,"http://www.thesteelarmadillosteam818frc.org/","USA","US","FRC","FRC","FIRST Robotics Competition",42.516647,-83.007709
829,"Rolls-Royce Corporation/Colors Inc/Waterjet Cutting of Indiana/Lafayette Steel and Aluminum&Walker Career Center","Digital Goats","Indianapolis","IN","46229",2018,247,2002,"http://www.warrenrobotics.org/","USA","US","FRC","FRC","FIRST Robotics Competition",39.77874,-85.97664
830,"Toyota Technical Center/Maker Works/NXP/A2 Geeks/Consumers Energy Foundation&Clague Middle School&Washtenaw International High School&Huron High School","The RatPack","Ann Arbor","MI","48108",2018,247,2002,"ratpackrobotics.com","USA","US","FRC","FRC","FIRST Robotics Competition",42.240869,-83.719353
832,"GE Volunteers / Siemens / Kennesaw State University & Roswell High School","Oscar","Roswell","GA","30075",2018,247,2002,"www.roswellrobotics.com","USA","US","FRC","FRC","FIRST Robotics Competition",34.046659,-84.376691
